,sno,sna,tot,sbi,sarea,mday,lat,lng,ar,sareaen,snaen,aren,bemp,act,srcUpdateTime,updateTime,infoTime,infoDate
7,500101008,YouBike2.0_新生南路三段52號前,17,7,大安區,2023-05-27 14:18:13,25.02112,121.53407,新生南路三段52號,Daan Dist.,YouBike2.0_No. 52， Sec. 3， Xinsheng S. Rd.,No. 52， Sec. 3， Xinsheng S. Rd.,9,1,2023-05-27 14:24:28,2023-05-27 14:24:51,2023-05-27 14:18:13,2023-05-27
12,500101014,YouBike2.0_羅斯福路三段311號前,11,7,大安區,2023-05-27 14:22:14,25.01717,121.53202,羅斯福路三段311號,Daan Dist.,YouBike2.0_No. 311， Sec. 3， Roosevelt Rd.,No. 311， Sec. 3， Roosevelt Rd.,4,1,2023-05-27 14:24:28,2023-05-27 14:24:51,2023-05-27 14:22:14,2023-05-27
13,500101015,YouBike2.0_大安運動中心停車場,14,4,大安區,2023-05-27 13:56:15,25.020348,121.546446,敦南街76巷28號,Daan Dist.,YouBike2.0_Taipei Da-an Sports Center Parking lot,No. 28， Ln. 76， Dunnan St.,10,1,2023-05-27 14:24:28,2023-05-27 14:24:51,2023-05-27 13:56:15,2023-05-27
14,500101016,YouBike2.0_羅斯福路三段245號前,8,4,大安區,2023-05-27 14:17:33,25.01927,121.52989,羅斯福路三段245號,Daan Dist.,YouBike2.0_No. 245， Sec. 3， Roosevelt Rd.,No. 245， Sec. 3， Roosevelt Rd.,4,1,2023-05-27 14:24:28,2023-05-27 14:24:51,2023-05-27 14:17:33,2023-05-27
16,500101019,YouBike2.0_和平臥龍街口,15,10,大安區,2023-05-27 14:22:14,25.024461,121.546705,臥龍街1號,Daan Dist.,YouBike2.0_Heping Wolong St. Intersection,No. 1， Wolong St.,5,1,2023-05-27 14:24:28,2023-05-27 14:24:51,2023-05-27 14:22:14,2023-05-27
20,500101023,YouBike2.0_第二學生活動中心,27,13,大安區,2023-05-27 14:21:15,25.01244,121.53661,羅斯福路四段107號(西南側),Daan Dist.,YouBike2.0_2nd Student Activity Center,No. 107， Sec. 4， Roosevelt Rd.(Southwest),14,1,2023-05-27 14:24:28,2023-05-27 14:24:51,2023-05-27 14:21:15,2023-05-27
21,500101024,YouBike2.0_臺灣科技大學正門,30,12,大安區,2023-05-27 14:08:14,25.01451,121.54142,基隆路四段43號(臺灣科技大學正門旁小側門靠田徑場),Daan Dist.,YouBike2.0_NTUST(Main Gate),No. 43， Sec. 4， Keelung Rd.,17,1,2023-05-27 14:24:28,2023-05-27 14:24:51,2023-05-27 14:08:14,2023-05-27
22,500101025,YouBike2.0_臺灣科技大學側門,99,23,大安區,2023-05-27 14:24:14,25.01295,121.53973,基隆路四段73巷與基隆路口,Daan Dist.,YouBike2.0_NTUST(Side Gate),Ln. 73， Sec. 4， Keelung Rd. Intersection,75,1,2023-05-27 14:24:28,2023-05-27 14:24:51,2023-05-27 14:24:14,2023-05-27
24,500101027,YouBike2.0_臺灣科技大學後門,39,13,大安區,2023-05-27 14:23:15,25.01182,121.54165,基隆路四段41巷68弄臺科帆船大樓旁,Daan Dist.,YouBike2.0_NTUST(Back Gate),Aly. 68， Ln. 41， Sec. 4， Keelung Rd.,25,1,2023-05-27 14:24:28,2023-05-27 14:24:51,2023-05-27 14:23:15,2023-05-27
26,500101029,YouBike2.0_臺大環研大樓,15,4,大安區,2023-05-27 14:06:16,25.01234,121.54503,芳蘭路/基隆路三段155巷口,Daan Dist.,YouBike2.0_NTU Environment Research Building,Fanglan Rd & Ln. 155， Sec. 3， Keelung Rd. Intersection,11,1,2023-05-27 14:24:28,2023-05-27 14:24:51,2023-05-27 14:06:16,2023-05-27
27,500101030,YouBike2.0_臺大永齡生醫工程館,34,15,大安區,2023-05-27 13:43:14,25.0136,121.54656,芳蘭路51號西北側,Daan Dist.,YouBike2.0_NTU Yonglin Biomedical Engineering Hall,No. 51， Fanglan Rd.(Northwest),19,1,2023-05-27 14:24:28,2023-05-27 14:24:51,2023-05-27 13:43:14,2023-05-27
29,500101032,YouBike2.0_臺大男一舍前,61,4,大安區,2023-05-27 14:23:15,25.01637,121.54535,長興街50號西北側,Daan Dist.,YouBike2.0_NTU 1st Men's Dorm,No. 50， Changxing St.(Northwest),57,1,2023-05-27 14:24:28,2023-05-27 14:24:51,2023-05-27 14:23:15,2023-05-27
30,500101033,YouBike2.0_臺大男六舍前,46,27,大安區,2023-05-27 14:19:14,25.01664,121.5452,大安區長興街31號,Daan Dist.,YouBike2.0_NTU 6th Men's Dorm,No. 31， Changxing St.,19,1,2023-05-27 14:24:28,2023-05-27 14:24:51,2023-05-27 14:19:14,2023-05-27
31,500101034,YouBike2.0_臺大動物醫院前,18,14,大安區,2023-05-27 14:24:14,25.01576,121.54291,基隆路三段155巷/基隆路四段口,Daan Dist.,YouBike2.0_NTU Veterinary Hospital,Ln. 155， Sec. 3， Keelung Rd. Intersection,4,1,2023-05-27 14:24:28,2023-05-27 14:24:51,2023-05-27 14:24:14,2023-05-27
33,500101036,YouBike2.0_臺大萬才館前,20,8,大安區,2023-05-27 14:21:15,25.02032,121.54497,臺大萬才館北側,Daan Dist.,YouBike2.0_NTU Wan Tsai Research Hall,NTU Wan Tsai Research Hall,12,1,2023-05-27 14:24:28,2023-05-27 14:24:51,2023-05-27 14:21:15,2023-05-27
35,500101038,YouBike2.0_臺大社科院圖書館前,27,5,大安區,2023-05-27 14:24:14,25.02101,121.54284,辛亥路與復興南路口西南側,Daan Dist.,YouBike2.0_NTU College of social Sciences Building,Xinhai Fuxing Rd. Intersection (Southwest),22,1,2023-05-27 14:24:28,2023-05-27 14:24:51,2023-05-27 14:24:14,2023-05-27
36,500101039,YouBike2.0_臺大法人語言訓練中心前,28,24,大安區,2023-05-27 14:19:14,25.02104,121.54081,臺大法人語言訓練中心北側,Daan Dist.,YouBike2.0_NTU Language Training & Testing Center,NTU Language Training & Testing Center(North),4,1,2023-05-27 14:24:28,2023-05-27 14:24:51,2023-05-27 14:19:14,2023-05-27
37,500101040,YouBike2.0_臺大綜合體育館停車場前,25,20,大安區,2023-05-27 14:14:14,25.0222,121.53626,臺大綜合體育館北側,Daan Dist.,YouBike2.0_NTU Sports Center Car Park,NTU Sports Center(North),5,1,2023-05-27 14:24:28,2023-05-27 14:24:51,2023-05-27 14:14:14,2023-05-27
39,500101042,YouBike2.0_基隆長興路口東側,15,9,大安區,2023-05-27 14:24:14,25.01727,121.54471,基隆長興路口東側,Daan Dist.,YouBike2.0_Keelung Changxing Rd. Intersection(East),Keelung Changxing Rd. Intersection(East),6,1,2023-05-27 14:24:28,2023-05-27 14:24:51,2023-05-27 14:24:14,2023-05-27
41,500101092,YouBike2.0_和平實小東北側,13,4,大安區,2023-05-27 13:25:15,25.021641,121.54704,敦南街73號,Daan Dist.,YouBike2.0_Heping Experiment Elementary School (Northeast),No. 73， Dunnan St.,9,1,2023-05-27 14:24:28,2023-05-27 14:24:51,2023-05-27 13:25:15,2023-05-27
43,500101094,YouBike2.0_辛亥泰順街口,20,4,大安區,2023-05-27 14:22:14,25.02193,121.53165,辛亥泰順街口東南側,Daan Dist.,YouBike2.0_Xinhai Taishun St. Intersection,Xinhai Taishun St. Intersection (Southeast),14,1,2023-05-27 14:24:28,2023-05-27 14:24:51,2023-05-27 14:22:14,2023-05-27
44,500101095,YouBike2.0_芳和國中,28,24,大安區,2023-05-27 14:23:15,25.0189,121.55013,臥龍街170號(前),Daan Dist.,YouBike2.0_Fanghe Junior High School,No. 170， Wolong St.,4,1,2023-05-27 14:24:28,2023-05-27 14:24:51,2023-05-27 14:23:15,2023-05-27
45,500101097,YouBike2.0_臥龍樂業街口,36,12,大安區,2023-05-27 14:21:15,25.01856,121.55558,臥龍街234-2號,Daan Dist.,YouBike2.0_Wolong Leye St. Intersection,No. 234-2， Wolong St.,23,1,2023-05-27 14:24:28,2023-05-27 14:24:51,2023-05-27 14:21:15,2023-05-27
47,500101099,YouBike2.0_嘉興公園,44,24,大安區,2023-05-27 14:22:14,25.021,121.55211,樂業街101巷3號西北側,Daan Dist.,YouBike2.0_Jiaxing Park,No. 3， Ln. 101， Leye St. (Northwest),20,1,2023-05-27 14:24:28,2023-05-27 14:24:51,2023-05-27 14:22:14,2023-05-27
48,500101100,YouBike2.0_捷運麟光站(2號出口),35,16,大安區,2023-05-27 14:15:15,25.0181,121.55929,和平東路三段420號東北側,Daan Dist.,YouBike2.0_MRT Linguang Sta. (Exit 2),No. 420， Sec. 3， Heping E. Rd. (Northeast),19,1,2023-05-27 14:24:28,2023-05-27 14:24:51,2023-05-27 14:15:15,2023-05-27
50,500101102,YouBike2.0_喬治工商,26,4,大安區,2023-05-27 14:22:14,25.02705,121.55551,基隆路二段166號,Daan Dist.,YouBike2.0_George Vocational High School of Taipei,No. 166， Sec. 2， Keelung Rd.,21,1,2023-05-27 14:24:28,2023-05-27 14:24:51,2023-05-27 14:22:14,2023-05-27
53,500101105,YouBike2.0_和平金山路口,45,10,大安區,2023-05-27 14:22:14,25.02669,121.52529,和平東路一段/金山南路二段西南側,Daan Dist.,YouBike2.0_Sec. 1， Heping E. Rd & Sec. 2， Jinshan S. Rd Intersection,Sec. 1， Heping E. Rd & Sec. 2， Jinshan S. Rd Intersection (Southwest),35,1,2023-05-27 14:24:28,2023-05-27 14:24:51,2023-05-27 14:22:14,2023-05-27
56,500101109,YouBike2.0_臺灣師範大學(圖書館),40,25,大安區,2023-05-27 14:24:14,25.0266,121.52973,和平東路一段129號前,Daan Dist.,YouBike2.0_National Taiwan Normal University (library),No. 129， Sec. 1， Heping E. Rd.,11,1,2023-05-27 14:24:28,2023-05-27 14:24:51,2023-05-27 14:24:14,2023-05-27
57,500101110,YouBike2.0_捷運古亭站(6號出口),60,15,大安區,2023-05-27 14:22:14,25.0276,121.52217,羅斯福路二段41號前,Daan Dist.,YouBike2.0_MRT Guting Sta. (Exit 6),No. 41， Sec. 2， Roosevelt Rd,45,1,2023-05-27 14:24:28,2023-05-27 14:24:51,2023-05-27 14:22:14,2023-05-27
59,500101113,YouBike2.0_臺北市立圖書館(總館),45,11,大安區,2023-05-27 14:23:15,25.02895,121.5379,建國南路二段/建國南路二段151巷(橋下空間),Daan Dist.,YouBike2.0_Taipei Public library,Sec. 2， Jianguo S. Rd & Ln. 151， Sec. 2， Jianguo S. Rd (Under Bridge),33,1,2023-05-27 14:24:28,2023-05-27 14:24:51,2023-05-27 14:23:15,2023-05-27
61,500101115,YouBike2.0_建國和平路口西北側,44,24,大安區,2023-05-27 14:24:14,25.02606,121.53738,建國南路二段與和平東路二段口西北側,Daan Dist.,YouBike2.0_Sec. 2， Jianguo S. Rd & Sec. 2， Heping E. Rd Intersection,Sec. 2， Jianguo S. Rd & Sec. 2， Heping E. Rd. (Northwest),20,1,2023-05-27 14:24:28,2023-05-27 14:24:51,2023-05-27 14:24:14,2023-05-27
62,500101116,YouBike2.0_金華公園,35,9,大安區,2023-05-27 14:23:15,25.02984,121.53107,金華街249號對面,Daan Dist.,YouBike2.0_Jinhua Park,No. 249， Jinhua St. (Opposite),24,1,2023-05-27 14:24:28,2023-05-27 14:24:51,2023-05-27 14:23:15,2023-05-27
63,500101117,YouBike2.0_捷運東門站(3號出口),15,4,大安區,2023-05-27 14:24:14,25.03383,121.52815,信義路二段128號前,Daan Dist.,YouBike2.0_MRT Dongmen Sta. (Exit 3),No. 128， Sec. 2， Xinyi Rd.,11,1,2023-05-27 14:24:28,2023-05-27 14:24:51,2023-05-27 14:24:14,2023-05-27
64,500101118,YouBike2.0_金甌女中,12,4,大安區,2023-05-27 14:17:33,25.03519,121.5245,信義路二段與杭州南路二段東南側,Daan Dist.,YouBike2.0_Jin'ou Girls High School,Sec. 2， Xinyi Rd. & Sec. 2， Hangzhou S. Rd. (Southeast),7,1,2023-05-27 14:24:28,2023-05-27 14:24:51,2023-05-27 14:17:33,2023-05-27
65,500101119,YouBike2.0_金杭公園,20,10,大安區,2023-05-27 14:18:13,25.03325,121.52436,愛國東路21巷與杭州南路二段25巷口東南側,Daan Dist.,YouBike2.0_Jinhang Park,Ln. 21， Aiguo E. Rd. & Ln. 25， Sec. 2， Hangzhou S. Rd. Intersection (Southeast),10,1,2023-05-27 14:24:28,2023-05-27 14:24:51,2023-05-27 14:18:13,2023-05-27
66,500101120,YouBike2.0_愛國金山路口,33,20,大安區,2023-05-27 14:18:13,25.03164,121.52661,愛國東路與杭州南路二段口西南側,Daan Dist.,YouBike2.0_Aiguo & Jinshan Rd. Intersection,Aiguo E. Rd. & Sec. 2， Hangzhou S. Rd. Intersection (Southwest),11,1,2023-05-27 14:24:28,2023-05-27 14:24:51,2023-05-27 14:18:13,2023-05-27
73,500101128,YouBike2.0_新生南路一段119巷口,33,10,大安區,2023-05-27 14:21:15,25.04003,121.53299,新生南路一段113號,Daan Dist.,YouBike2.0_Ln. 119， Sec. 1， Xinsheng S. Rd Intersection,No. 113， Ln. 119， Sec. 1， Xinsheng S. Rd.,21,1,2023-05-27 14:24:28,2023-05-27 14:24:51,2023-05-27 14:21:15,2023-05-27
74,500101129,YouBike2.0_幸安國小(仁愛路),16,12,大安區,2023-05-27 14:22:14,25.03753,121.53523,仁愛路三段22號,Daan Dist.,YouBike2.0_Xing'an Elementary School (Ren'ai Rd),No. 22， Sec. 3， Ren'ai Rd.,3,1,2023-05-27 14:24:28,2023-05-27 14:24:51,2023-05-27 14:22:14,2023-05-27
76,500101131,YouBike2.0_復興南路1段340巷口,38,29,大安區,2023-05-27 14:15:15,25.03701,121.54348,復興南路一段信義路三段147巷45弄口,Daan Dist.,YouBike2.0_Ln. 340， Sec. 1， Fuxing S. Rd Intersection,Sec. 1， Fuxing S. Rd & Aly. 45， Ln. 147， Sec. 3， Xinyi Rd Intersection.,8,1,2023-05-27 14:24:28,2023-05-27 14:24:51,2023-05-27 14:15:15,2023-05-27
77,500101132,YouBike2.0_建國濟南路口,29,24,大安區,2023-05-27 14:23:15,25.03935,121.53828,建國南路一段/濟南路三段口(東南側),Daan Dist.,YouBike2.0_Sec. 1， Jianguo S. Rd & Sec. 3， Jinan Rd Intersection,Sec. 1， Jianguo S. Rd & Sec. 3， Jinan Rd Intersection. (Southeast),5,1,2023-05-27 14:24:28,2023-05-27 14:24:51,2023-05-27 14:23:15,2023-05-27
78,500101133,YouBike2.0_捷運忠孝復興站(2號出口),43,31,大安區,2023-05-27 14:23:15,25.04035,121.5436,復興南路一段/仁愛路三段123巷13弄(西北側),Daan Dist.,YouBike2.0_MRT Zhongxiao Fuxing Sta (Exit 2),Sec. 1， Fuxing S. R & Aly. 13， Ln. 123， Sec. 3， Ren'ai Rd. (Northwest),10,1,2023-05-27 14:24:28,2023-05-27 14:24:51,2023-05-27 14:23:15,2023-05-27
80,500101135,YouBike2.0_捷運大安站(2號出口),22,5,大安區,2023-05-27 14:23:15,25.03358,121.54141,信義路3段143號(前),Daan Dist.,YouBike2.0_MRT Da’an Sta (Exit 2),No. 143， Sec. 3， Xinyi Rd.,17,1,2023-05-27 14:24:28,2023-05-27 14:24:51,2023-05-27 14:23:15,2023-05-27
82,500101137,YouBike2.0_龍門廣場,50,35,大安區,2023-05-27 14:22:14,25.04092,121.54825,敦化南路一段與敦化南路一段236巷口,Daan Dist.,YouBike2.0_Long Men Plaza,Sec. 1， Dunhua S. Rd & Ln. 236， Sec. 1， Dunhua S. Rd Intersection.,14,1,2023-05-27 14:24:28,2023-05-27 14:24:51,2023-05-27 14:22:14,2023-05-27
89,500101144,YouBike2.0_捷運大安森林公園站(2號出口),62,5,大安區,2023-05-27 14:22:14,25.03332,121.53435,捷運大安森林公園站(2號出口)西側,Daan Dist.,YouBike2.0_MRT Daan Park Sta. (Exit 2),MRT Daan Park Sta. (Exit 2) (West),57,1,2023-05-27 14:24:28,2023-05-27 14:24:51,2023-05-27 14:22:14,2023-05-27
92,500101147,YouBike2.0_僑安地下停車場(2號出口)東南側,20,16,大安區,2023-05-27 14:18:13,25.0391,121.5569,光復南路290巷5號,Daan Dist.,YouBike2.0_Qiao An Dixia Parking (Exit 2) (Southeast),No. 5， Ln. 290， Guangfu S. Rd,3,1,2023-05-27 14:24:28,2023-05-27 14:24:51,2023-05-27 14:18:13,2023-05-27
93,500101148,YouBike2.0_建國南路一段279巷口,32,14,大安區,2023-05-27 14:23:15,25.03635,121.53833,建國南路一段275號,Daan Dist.,YouBike2.0_Ln. 279， Sec. 1， Jianguo S. Rd Intersection,No. 275， Sec. 1， Jianguo S. Rd.,18,1,2023-05-27 14:24:28,2023-05-27 14:24:51,2023-05-27 14:23:15,2023-05-27
95,500101150,YouBike2.0_捷運忠孝新生站(4號出口),34,5,大安區,2023-05-27 14:22:14,25.04239,121.53324,忠孝新生路口北側,Daan Dist.,YouBike2.0_MRT Zhongxiao Xinsheng Sta. (Exit 4),Zhongxiao & Xinsheng S. Rd Intersection. (North),28,1,2023-05-27 14:24:28,2023-05-27 14:24:51,2023-05-27 14:22:14,2023-05-27
98,500101153,YouBike2.0_瑠公公園,20,18,大安區,2023-05-27 14:24:14,25.04201,121.54612,忠孝東路四段49巷4弄/大安路口,Daan Dist.,YouBike2.0_Liugong Park,Aly. 4， Ln. 49， Sec. 4， Zhongxiao E. Rd./Da'an Rd. Intersection,1,1,2023-05-27 14:24:28,2023-05-27 14:24:51,2023-05-27 14:24:14,2023-05-27
99,500101154,YouBike2.0_敦化市民路口,23,4,大安區,2023-05-27 14:21:15,25.04405,121.5486,敦化南路1段158號(前),Daan Dist.,YouBike2.0_Dunhua S. Rd. & Civic Blvd. Intersection,No. 158， Sec. 1， Dunhua S. Rd.,16,1,2023-05-27 14:24:28,2023-05-27 14:24:51,2023-05-27 14:21:15,2023-05-27
101,500101156,YouBike2.0_信義建國路口,38,20,大安區,2023-05-27 14:24:14,25.0328,121.53746,建國南路二段與信義路三段口西南側,Daan Dist.,YouBike2.0_Xinyi Rd. & Jianguo Rd. Intersection,Sec. 2， Jianguo S Rd. & Sec. 3， Xinyi Rd. Intersection (Southwest),16,1,2023-05-27 14:24:28,2023-05-27 14:24:51,2023-05-27 14:24:14,2023-05-27
104,500101159,YouBike2.0_捷運忠孝復興站(5號出口),41,23,大安區,2023-05-27 14:23:15,25.04262,121.54443,復興南路一段135巷3號(對面),Daan Dist.,YouBike2.0_MRT Zhongxiao Fuxing Sta (Exit 5),No. 3， Ln. 135， Sec. 1， Fuxing S. Rd. (Opposite),18,1,2023-05-27 14:24:28,2023-05-27 14:24:51,2023-05-27 14:23:15,2023-05-27
105,500101160,YouBike2.0_捷運忠孝敦化站(2號出口),17,6,大安區,2023-05-27 14:22:14,25.04153,121.5524,忠孝東路四段221號,Daan Dist.,YouBike2.0_MRT Zhongxiao Dunhua Sta. (Exit 2),No. 221， Sec. 4， Zhongxiao E. Rd.,11,1,2023-05-27 14:24:28,2023-05-27 14:24:51,2023-05-27 14:22:14,2023-05-27
106,500101161,YouBike2.0_捷運忠孝敦化站(7號出口),18,10,大安區,2023-05-27 14:22:14,25.04159,121.54937,忠孝東路四段143號,Daan Dist.,YouBike2.0_MRT Zhongxiao Dunhua Sta. (Exit 7),No. 143， Sec. 4， Zhongxiao E. Rd.,7,1,2023-05-27 14:24:28,2023-05-27 14:24:51,2023-05-27 14:22:14,2023-05-27
107,500101163,YouBike2.0_瑞安街208巷,15,4,大安區,2023-05-27 14:05:16,25.02979,121.54053,瑞安街208巷39號對面,Daan Dist.,YouBike2.0_Ln. 208， Rui'an St.,No. 39， Ln. 208， Rui'an St. (Opposite),11,1,2023-05-27 14:24:28,2023-05-27 14:24:51,2023-05-27 14:05:16,2023-05-27
110,500101167,YouBike2.0_捷運國父紀念館站(2號出口),38,28,大安區,2023-05-27 14:21:15,25.04122,121.55745,忠孝東路四段/光復南路口(西南側),Daan Dist.,YouBike2.0_MRT S.Y.S Memorial Hall Stataion(Exit 2.),Sec. 4， Jhongsiao E. Rd. & Guangfu S. Rd. Intersection (Southwest),9,1,2023-05-27 14:24:28,2023-05-27 14:24:51,2023-05-27 14:21:15,2023-05-27
112,500101169,YouBike2.0_捷運信義安和站(4號出口),30,6,大安區,2023-05-27 14:24:14,25.03305,121.55378,信義路四段252號前,Daan Dist.,YouBike2.0_MRT Xinyi Anhe Sta.(Exit.4),No. 252， Sec. 4， Sinyi Rd.,23,1,2023-05-27 14:24:28,2023-05-27 14:24:51,2023-05-27 14:24:14,2023-05-27
113,500101170,YouBike2.0_成功國宅,30,8,大安區,2023-05-27 14:21:15,25.02681,121.54668,和平東路三段1巷/四維路198巷口(西北側),Daan Dist.,YouBike2.0_Chengong Public Housing,Ln. 1， Sec. 3， Heping E. Rd. & Ln. 198， Sihwei Rd. Intersection (Northwest),22,1,2023-05-27 14:24:28,2023-05-27 14:24:51,2023-05-27 14:21:15,2023-05-27
114,500101171,YouBike2.0_仁愛延吉街口,25,7,大安區,2023-05-27 14:11:14,25.03748,121.55564,仁愛路四段376號前,Daan Dist.,YouBike2.0_Renai & Yanji Intersection,No. 376， Sec. 4， Ren'ai Rd.,18,1,2023-05-27 14:24:28,2023-05-27 14:24:51,2023-05-27 14:11:14,2023-05-27
117,500101174,YouBike2.0_復興南路二段128巷口,28,6,大安區,2023-05-27 14:21:15,25.02861,121.54336,復興南路二段142之1號前,Daan Dist.,YouBike2.0_Ln. 128， Sec. 2， Fuxing S. Rd.,No. 142-1， Sec. 2， Fusing S. Rd.,22,1,2023-05-27 14:24:28,2023-05-27 14:24:51,2023-05-27 14:21:15,2023-05-27
118,500101175,YouBike2.0_和平東建國南路口,17,14,大安區,2023-05-27 14:21:15,25.02575,121.5377,和平東路/建國南路口(北側),Daan Dist.,YouBike2.0_Heping E. Rd. & Jianguo S. Rd. Intersection,Heping E. Rd. & Jianguo S. Rd. Intersection (North),2,1,2023-05-27 14:24:28,2023-05-27 14:24:51,2023-05-27 14:21:15,2023-05-27
120,500101177,YouBike2.0_復興南路一段126巷口,15,15,大安區,2023-05-27 14:23:04,25.04311,121.54313,復興南路一段126巷1號前,Daan Dist.,YouBike2.0_Ln. 126， Sec. 1， Fuxing S. Rd.,No. 1， Ln. 126， Sec. 1， Fuxing S. Rd.,0,1,2023-05-27 14:24:28,2023-05-27 14:24:51,2023-05-27 14:23:04,2023-05-27
121,500101179,YouBike2.0_捷運東門站(5號出口),28,5,大安區,2023-05-27 14:23:15,25.03363,121.52962,信義路二段178號前,Daan Dist.,YouBike2.0_MRT Dongmen Sta. (Exit 5),No. 178， Sec. 2， Xinyi Rd.,22,1,2023-05-27 14:24:28,2023-05-27 14:24:51,2023-05-27 14:23:15,2023-05-27
122,500101180,YouBike2.0_仁愛路四段48巷口,11,11,大安區,2023-05-27 14:23:15,25.03609,121.54709,仁愛路四段48巷/東豐街(北側),Daan Dist.,YouBike2.0_Ln. 48， Sec. 4， Ren'ai Rd.,Ln. 48， Sec. 4， Ren'ai Rd. & Dongfeng St. Intersection (North),0,1,2023-05-27 14:24:28,2023-05-27 14:24:51,2023-05-27 14:23:15,2023-05-27
123,500101181,YouBike2.0_捷運公館站(3號出口),90,9,大安區,2023-05-27 14:24:14,25.01551,121.53374,捷運公館站(3號出口)西側,Daan Dist.,YouBike2.0_MRT Gongguan Sta.(Exit.3),MRT Gongguan Sta.(Exit.3)(West),80,1,2023-05-27 14:24:28,2023-05-27 14:24:51,2023-05-27 14:24:14,2023-05-27
125,500101183,YouBike2.0_忠孝東路三段217巷口,34,15,大安區,2023-05-27 14:24:14,25.04176,121.54027,忠孝東路三段229-1號前,Daan Dist.,YouBike2.0_Ln. 217， Sec. 3， Zhongxiao E. Rd.,No. 229-1， Sec. 3， Zhongxiao E. Rd.,19,1,2023-05-27 14:24:28,2023-05-27 14:24:51,2023-05-27 14:24:14,2023-05-27
133,500101191,YouBike2.0_大安運動中心,27,21,大安區,2023-05-27 14:21:15,25.02054,121.54561,辛亥路三段55號前方人行道(大安運動中心),Daan Dist.,YouBike2.0_Taipei Daan Sports Center,No. 55， Sec. 3， Xinhai Rd.,5,1,2023-05-27 14:24:28,2023-05-27 14:24:51,2023-05-27 14:21:15,2023-05-27
134,500101192,YouBike2.0_和平敦化路口,25,6,大安區,2023-05-27 14:16:16,25.02444,121.54908,和平東路三段 / 敦化南路二段口(東側),Daan Dist.,YouBike2.0_Heping Rd. & Dunhua Rd. Intersection,Sec. 3， Heping E. Rd. & Sec. 2， Dunhua S. Rd. Intersection (East),18,1,2023-05-27 14:24:28,2023-05-27 14:24:51,2023-05-27 14:16:16,2023-05-27
137,500101196,YouBike2.0_市民敦化路口,15,6,大安區,2023-05-27 14:17:33,25.04464,121.54944,敦化南路一段111號前,Daan Dist.,YouBike2.0_Civic Blvd. & Dunhua Rd. Intersection,No. 111， Sec. 1， Dunhua S. Rd.,9,1,2023-05-27 14:24:28,2023-05-27 14:24:51,2023-05-27 14:17:33,2023-05-27
138,500101197,YouBike2.0_忠孝東路四段49巷口,15,4,大安區,2023-05-27 14:21:15,25.04172,121.54541,忠孝東路四段55號前,Daan Dist.,YouBike2.0_Ln. 49， Sec. 4， Zhongxiao E. Rd.,No. 55， Sec. 4， Zhongxiao E. Rd.,10,1,2023-05-27 14:24:28,2023-05-27 14:24:51,2023-05-27 14:21:15,2023-05-27
139,500101198,YouBike2.0_市民復興路口(東南側),16,6,大安區,2023-05-27 14:24:14,25.04472,121.54401,市民大道四段/復興路一段口(東南側),Daan Dist.,YouBike2.0_Civic Blvd. & Fuxing Rd. Intersection (Southeast),Sec. 4， Civic Blvd. & Sec. 1， Fuxing S. Rd. Intersection (Southeast),10,1,2023-05-27 14:24:28,2023-05-27 14:24:51,2023-05-27 14:24:14,2023-05-27
141,500101200,YouBike2.0_全安公園,16,6,大安區,2023-05-27 14:11:14,25.02535,121.55101,安和路二段227巷16號對側,Daan Dist.,YouBike2.0_Quanan Park,No. 16， Ln. 227， Sec. 2， Anhe Rd. (Opposite),10,1,2023-05-27 14:24:28,2023-05-27 14:24:51,2023-05-27 14:11:14,2023-05-27
145,500101204,YouBike2.0_外交部外交及國際事務學院,17,4,大安區,2023-05-27 14:21:15,25.0371,121.54839,敦化南路一段280號,Daan Dist.,YouBike2.0_Institute of Diplomacy and International Affairs,No. 280， Sec. 1， Dunhua S. Rd.,13,1,2023-05-27 14:24:28,2023-05-27 14:24:51,2023-05-27 14:21:15,2023-05-27
147,500101206,YouBike2.0_捷運大安站(3號出口),44,17,大安區,2023-05-27 14:21:15,25.03328,121.5425,信義路三段184號前,Daan Dist.,YouBike2.0_MRT Da’an Sta. (Exit 3),No. 184， Sec. 3， Xinyi Rd.,26,1,2023-05-27 14:24:28,2023-05-27 14:24:51,2023-05-27 14:21:15,2023-05-27
149,500101208,YouBike2.0_信義路四段199巷,15,5,大安區,2023-05-27 14:22:14,25.03459,121.55164,信義路四段199巷/安和路一段90巷口,Daan Dist.,YouBike2.0_Ln. 199， Sec. 4， Xinyi Rd.,Ln. 199， Sec. 4， Xinyi Rd. & Ln. 90， Sec. 1， Anhe Rd. Intersection,9,1,2023-05-27 14:24:28,2023-05-27 14:24:51,2023-05-27 14:22:14,2023-05-27
150,500101209,YouBike2.0_臺大資訊大樓,40,20,大安區,2023-05-27 14:15:15,25.02101,121.54153,辛亥路二段(臺大外語學院外),Daan Dist.,YouBike2.0_NTU Information Building,Sec. 2， Xinhai Rd.(NTU Language Center),20,1,2023-05-27 14:24:28,2023-05-27 14:24:51,2023-05-27 14:15:15,2023-05-27
151,500101210,YouBike2.0_敦化南路二段81巷,40,4,大安區,2023-05-27 14:13:14,25.03002,121.54893,敦化南路二段與敦化南路二段81巷口西北側,Daan Dist.,YouBike2.0_Ln. 81， Sec. 2， Dunhua S. Rd.,Sec. 2， Dunhua S. Rd. & Ln. 81， Sec. 2， Dunhua S. Rd. Intersection (Northwest),35,1,2023-05-27 14:24:28,2023-05-27 14:24:51,2023-05-27 14:13:14,2023-05-27
153,500101212,YouBike2.0_捷運國父紀念館站(1號出口),25,21,大安區,2023-05-27 14:24:14,25.04205,121.55657,光復南路200巷26號東側,Daan Dist.,YouBike2.0_MRT S.Y.S Memorial Hall Sta. (Exit 1),No. 26， Ln. 200， Guangfu S. Rd. (East),2,1,2023-05-27 14:24:28,2023-05-27 14:24:51,2023-05-27 14:24:14,2023-05-27
154,500101213,YouBike2.0_懷生國中,15,6,大安區,2023-05-27 14:17:33,25.0401,121.54122,忠孝東路三段248巷30號,Daan Dist.,YouBike2.0_Huai Sheng Junior High School,No. 30， Ln. 248， Sec. 3， Zhongxiao E. Rd.,8,1,2023-05-27 14:24:28,2023-05-27 14:24:51,2023-05-27 14:17:33,2023-05-27
155,500101214,YouBike2.0_仁愛敦南圓環(西北側),20,18,大安區,2023-05-27 14:11:04,25.03827,121.54802,仁愛路四段85號前,Daan Dist.,YouBike2.0_Renai Dunnan Traffic Cir (Northwest),No. 85， Sec. 4， Ren'ai Rd,1,1,2023-05-27 14:24:28,2023-05-27 14:24:51,2023-05-27 14:11:04,2023-05-27
156,500101215,YouBike2.0_立人國小,17,8,大安區,2023-05-27 14:19:14,25.02974,121.55146,安和路二段/敦化南路二段81巷(西南側),Daan Dist.,YouBike2.0_Lih Jen International Private Elementary and Middle School,Sec. 2， Anhe Rd. & Ln. 81， Sec. 2， Dunhua S. Rd. Intersection (Southwest),6,1,2023-05-27 14:24:28,2023-05-27 14:24:51,2023-05-27 14:19:14,2023-05-27
157,500101216,YouBike2.0_和平東路二段18巷口,24,5,大安區,2023-05-27 14:22:14,25.02268,121.53608,辛亥路二段43號前,Daan Dist.,YouBike2.0_Ln. 18， Sec. 2， Heping E. Rd.,No. 43， Sec. 2， Xinhai Rd.,18,1,2023-05-27 14:24:28,2023-05-27 14:24:51,2023-05-27 14:22:14,2023-05-27
160,500101219,YouBike2.0_羅斯福路四段113巷19弄口,14,5,大安區,2023-05-27 13:32:14,25.01027,121.53998,羅斯福路四段119巷84號對側,Daan Dist.,YouBike2.0_Aly. 19， Ln. 113， Sec. 4， Roosevelt Rd.,No. 84， Ln. 119， Sec. 4， Roosevelt Rd. (Opposite),8,1,2023-05-27 14:24:28,2023-05-27 14:24:51,2023-05-27 13:32:14,2023-05-27
161,500101221,YouBike2.0_忠孝東路四段248巷口,15,11,大安區,2023-05-27 14:21:15,25.04132,121.55393,忠孝東路四段230號前,Daan Dist.,YouBike2.0_Ln. 248， Sec. 4， Zhongxiao E. Rd.,No. 230， Sec. 4， Zhongxiao E. Rd.,2,1,2023-05-27 14:24:28,2023-05-27 14:24:51,2023-05-27 14:21:15,2023-05-27
162,500101222,YouBike2.0_仁愛延吉路口(西北側),18,15,大安區,2023-05-27 14:24:14,25.03795,121.55466,仁愛路四段363號前,Daan Dist.,YouBike2.0_Ren'ai Rd. & Yanji St. Intersection (Northwest),No. 363， Sec. 4， Ren'ai Rd.,3,1,2023-05-27 14:24:28,2023-05-27 14:24:51,2023-05-27 14:24:14,2023-05-27
163,500101223,YouBike2.0_樂利路101巷口,13,6,大安區,2023-05-27 14:22:14,25.02528,121.55224,樂利路97號前,Daan Dist.,YouBike2.0_Ln. 101， Leli Rd.,No. 97， Leli Rd.,7,1,2023-05-27 14:24:28,2023-05-27 14:24:51,2023-05-27 14:22:14,2023-05-27
164,500101224,YouBike2.0_羅斯福浦城街口,15,4,大安區,2023-05-27 14:17:34,25.02208,121.52678,羅斯福路三段117號前,Daan Dist.,YouBike2.0_Roosevelt Rd. & Pucheng St. Intersection,No. 117， Sec. 3， Roosevelt Rd.,11,1,2023-05-27 14:24:28,2023-05-27 14:24:51,2023-05-27 14:17:34,2023-05-27
165,500103001,YouBike2.0_延平國宅,30,11,大同區,2023-05-27 14:23:15,25.07894,121.51121,延平北路五段1-1號(對面),Datong Dist,YouBike2.0_Yanping Public Housing,No. 1-1， Sec. 5， Yanping N. Rd. (Opposite),19,1,2023-05-27 14:24:28,2023-05-27 14:24:51,2023-05-27 14:23:15,2023-05-27
166,500103002,YouBike2.0_臺北市立圖書館大同分館,20,5,大同區,2023-05-27 14:05:16,25.0741,121.51349,重慶北路三段318號旁,Datong Dist,YouBike2.0_Taipei Public Library DaTong Branch,No. 318， Sec. 3， Chongqing N Rd.,15,1,2023-05-27 14:24:28,2023-05-27 14:24:51,2023-05-27 14:05:16,2023-05-27
167,500103003,YouBike2.0_合昌宮,15,6,大同區,2023-05-27 14:01:16,25.07717,121.50934,環河北路二段371號旁,Datong Dist,YouBike2.0_Hechang Temple,No. 371， Sec. 2， Huanhe N. Rd.,9,1,2023-05-27 14:24:28,2023-05-27 14:24:51,2023-05-27 14:01:16,2023-05-27
170,500103006,YouBike2.0_樹德公園,14,5,大同區,2023-05-27 14:13:14,25.06647,121.5165,大龍街85巷12號對側,Datong Dist,YouBike2.0_Shude Park,No. 12， Ln. 85， Dalong St. (Opposite),9,1,2023-05-27 14:24:28,2023-05-27 14:24:51,2023-05-27 14:13:14,2023-05-27
171,500103007,YouBike2.0_陳天來故居,18,10,大同區,2023-05-27 14:23:15,25.05601,121.50895,西寧北路112號前方,Datong Dist,YouBike2.0_Chen Tian-lai Residence,No. 112， Xining N. Rd.,8,1,2023-05-27 14:24:28,2023-05-27 14:24:51,2023-05-27 14:23:15,2023-05-27
172,500103008,YouBike2.0_臺北孔廟,27,5,大同區,2023-05-27 14:21:15,25.07378,121.51583,哈密街61號口對側人行道,Datong Dist,YouBike2.0_Taipei Confucius Temple,No. 61， Hami St. Intersection (Opposite),22,1,2023-05-27 14:24:28,2023-05-27 14:24:51,2023-05-27 14:21:15,2023-05-27
173,500103009,YouBike2.0_捷運圓山站(1號出口),44,10,大同區,2023-05-27 14:24:14,25.07133,121.52024,酒泉街235號前,Datong Dist,YouBike2.0_MRT Yuanshan Sta. (Exit 1),No. 235， Jiuquan St.,31,1,2023-05-27 14:24:28,2023-05-27 14:24:51,2023-05-27 14:24:14,2023-05-27
174,500103010,YouBike2.0_酒泉延平路口,26,12,大同區,2023-05-27 14:17:34,25.0722,121.51057,酒泉街235號前,Datong Dist,YouBike2.0_Jiuquan St. & Yanping Rd. Intersection,No. 235， Jiuquan St.,14,1,2023-05-27 14:24:28,2023-05-27 14:24:51,2023-05-27 14:17:34,2023-05-27
175,500103011,YouBike2.0_重慶國中,37,4,大同區,2023-05-27 13:40:21,25.07567,121.51862,敦煌路19號前,Datong Dist,YouBike2.0_Chongqing Junior High School,No. 19， Dunhuang Rd.,33,1,2023-05-27 14:24:28,2023-05-27 14:24:51,2023-05-27 13:40:21,2023-05-27
176,500103012,YouBike2.0_重慶北路三段383巷口,25,10,大同區,2023-05-27 14:11:14,25.07598,121.51409,敦煌路與重慶北路三段383巷口,Datong Dist,YouBike2.0_Ln. 383， Sec. 3， Chongqing N Rd. Intersection,Dunhuang Rd. & Ln. 383， Sec. 3， Chongqing N Rd. Intersection,15,1,2023-05-27 14:24:28,2023-05-27 14:24:51,2023-05-27 14:11:14,2023-05-27
177,500103013,YouBike2.0_台北數位產業園區,24,4,大同區,2023-05-27 14:22:14,25.07447,121.52003,承德路三段287號前方,Datong Dist,YouBike2.0_DigiBlock Taipei,No. 287， Sec. 3， Chengde Rd.,20,1,2023-05-27 14:24:28,2023-05-27 14:24:51,2023-05-27 14:22:14,2023-05-27
178,500103019,YouBike2.0_民權延平路口(西北側),20,7,大同區,2023-05-27 14:17:34,25.06326,121.51099,民權西路239號前方,Datong Dist,YouBike2.0_Minquan Rd. & Yanping Rd. Intersection (Northwest),No. 239， Minquan W. Rd.,13,1,2023-05-27 14:24:28,2023-05-27 14:24:51,2023-05-27 14:17:34,2023-05-27
179,500103020,YouBike2.0_民權迪化街口,23,21,大同區,2023-05-27 14:22:14,25.06327,121.50943,民權西路與迪化街一段口(橋墩下),Datong Dist,YouBike2.0_Minquan Rd. & Dihua St. Intersection,Minquan W. Rd. & Sec. 1， Dihua St. Intersection (Under Bridge),2,1,2023-05-27 14:24:28,2023-05-27 14:24:51,2023-05-27 14:22:14,2023-05-27
180,500103021,YouBike2.0_大稻埕公園,25,13,大同區,2023-05-27 14:18:13,25.05915,121.51033,安西街1巷7號(對側),Datong Dist,YouBike2.0_Dadaocheng Park,No. 7， Ln. 1， Anxi St. (Opposite),12,1,2023-05-27 14:24:28,2023-05-27 14:24:51,2023-05-27 14:18:13,2023-05-27
182,500103023,YouBike2.0_大龍峒社會住宅,20,6,大同區,2023-05-27 14:19:14,25.0708,121.51826,承德路三段210號旁,Datong Dist,YouBike2.0_Dalongdong Social Housing,No. 210， Sec. 3， Chengde Rd.,14,1,2023-05-27 14:24:28,2023-05-27 14:24:51,2023-05-27 14:19:14,2023-05-27
183,500103024,YouBike2.0_捷運大橋頭站(2號出口),57,16,大同區,2023-05-27 14:24:14,25.06314,121.51308,捷運大橋頭站(2號出口)西側,Datong Dist,YouBike2.0_MRT Daqiaotou Sta. (Exit 2),MRT Daqiaotou Sta. (Exit 2) (West),40,1,2023-05-27 14:24:28,2023-05-27 14:24:51,2023-05-27 14:24:14,2023-05-27
186,500103027,YouBike2.0_捷運雙連站(2號出口),41,6,大同區,2023-05-27 14:23:15,25.05826,121.52063,萬全街22號對面,Datong Dist,YouBike2.0_MRT Shuanglian Sta. (Exit 2),No. 22， Wanquan St. (Opposite),35,1,2023-05-27 14:24:28,2023-05-27 14:24:51,2023-05-27 14:23:15,2023-05-27
187,500103028,YouBike2.0_捷運北門站(3號出口),62,13,大同區,2023-05-27 14:24:14,25.04991,121.5104,塔城街與鄭州路口西南側,Datong Dist,YouBike2.0_MRT Beimen. (Exit 3),Tacheng St. & Zhengzhou Rd. Intersection (Southwest),49,1,2023-05-27 14:24:28,2023-05-27 14:24:51,2023-05-27 14:24:14,2023-05-27
189,500103030,YouBike2.0_永樂市場,38,33,大同區,2023-05-27 14:23:15,25.05454,121.51052,南京西路233巷103號旁,Datong Dist,YouBike2.0_Yongle Market,No. 103， Ln. 233， Nanjing W. Rd.,0,1,2023-05-27 14:24:28,2023-05-27 14:24:51,2023-05-27 14:23:15,2023-05-27
191,500103032,YouBike2.0_重慶涼州街口,13,5,大同區,2023-05-27 14:19:14,25.06054,121.51338,重慶北路二段180號旁,Datong Dist,YouBike2.0_Chongcing Rd. & Liangjhou St. Intersection,No. 180， Sec. 2， Chongcing N. Rd.,8,1,2023-05-27 14:24:28,2023-05-27 14:24:51,2023-05-27 14:19:14,2023-05-27
192,500103033,YouBike2.0_圓山線形公園,14,4,大同區,2023-05-27 14:13:14,25.06867,121.51993,玉門街/民族西路(西北側),Datong Dist,YouBike2.0_Linear Park - Yuanshan,Minzu Rd. & Minzu W. Rd. Intersection (Northwest),10,1,2023-05-27 14:24:28,2023-05-27 14:24:51,2023-05-27 14:13:14,2023-05-27
193,500103034,YouBike2.0_圓環站,28,6,大同區,2023-05-27 14:24:14,25.05369,121.51418,重慶北路一段128號前,Datong Dist,YouBike2.0_Yuanhuan,No. 128， Sec. 1， Chongcing N. Rd.,22,1,2023-05-27 14:24:28,2023-05-27 14:24:51,2023-05-27 14:24:14,2023-05-27
195,500103036,YouBike2.0_承德路三段8巷口,16,5,大同區,2023-05-27 14:12:14,25.06407,121.51822,承德路三段14號前,Datong Dist,YouBike2.0_Ln. 8， Sec. 3， Chengde Rd. Intersection,No. 14， Sec. 3， Chengde Rd.,11,1,2023-05-27 14:24:28,2023-05-27 14:24:51,2023-05-27 14:12:14,2023-05-27
196,500103037,YouBike2.0_太原廣場,31,17,大同區,2023-05-27 14:24:14,25.04925,121.51468,鄭州路23號(旁),Datong Dist,YouBike2.0_Tai Yuan Guang Chang,No. 23， Zhengzhou Rd.,13,1,2023-05-27 14:24:28,2023-05-27 14:24:51,2023-05-27 14:24:14,2023-05-27
197,500103038,YouBike2.0_國順公園,20,7,大同區,2023-05-27 14:11:14,25.06594,121.51078,昌吉街117號前,Datong Dist,YouBike2.0_Guoshun Park,No. 117， Changji St.,13,1,2023-05-27 14:24:28,2023-05-27 14:24:51,2023-05-27 14:11:14,2023-05-27
199,500103040,YouBike2.0_蔣渭水紀念公園,24,12,大同區,2023-05-27 14:21:15,25.06011,121.51729,錦西街/興城街口(西南側),Datong Dist,YouBike2.0_Chiang Wei-shui Memorial Park,Jinxi St. & Xingcheng St. Intersection (Southwest),12,1,2023-05-27 14:24:28,2023-05-27 14:24:51,2023-05-27 14:21:15,2023-05-27
203,500103044,YouBike2.0_大稻埕碼頭,35,31,大同區,2023-05-27 14:22:14,25.05662,121.50783,大稻埕疏散門(淡五號水門)外,Datong Dist,YouBike2.0_Dadaocheng Wharf,Dadaocheng Evacuation Gate,4,1,2023-05-27 14:24:28,2023-05-27 14:24:51,2023-05-27 14:22:14,2023-05-27
204,500103045,YouBike2.0_歸綏戲曲公園,20,13,大同區,2023-05-27 14:16:16,25.05805,121.51353,重慶北路二段/歸綏街口(南側),Datong Dist,YouBike2.0_Guisui Park,Sec. 2， Chongqing N. Rd. & Guisui St. Intersection (South),7,1,2023-05-27 14:24:28,2023-05-27 14:24:51,2023-05-27 14:16:16,2023-05-27
205,500103046,YouBike2.0_民權國中(民權西路),17,5,大同區,2023-05-27 14:21:15,25.06322,121.5144,民權西路/蘭州街(西側),Datong Dist,YouBike2.0_Min-Quan Junior High School (Minquan W. Rd.),Minquan W. Rd. & Lanzhou St. Intersection (West),12,1,2023-05-27 14:24:28,2023-05-27 14:24:51,2023-05-27 14:21:15,2023-05-27
206,500103047,YouBike2.0_承德民權路口,17,6,大同區,2023-05-27 14:19:14,25.06247,121.51839,承德路二段239號前,Datong Dist,YouBike2.0_Chengde Rd. & Minquan Rd. Intersection,No. 239， Sec. 2， Chengde Rd.,11,1,2023-05-27 14:24:28,2023-05-27 14:24:51,2023-05-27 14:19:14,2023-05-27
207,500103048,YouBike2.0_南京太原路口,18,8,大同區,2023-05-27 14:22:14,25.05366,121.51638,南京西路/太原路(東側),Datong Dist,YouBike2.0_Nanjing Rd. & Taiyuan Rd. Intersection,Nanjing W. Rd. & Taiyuan Rd. Intersection (East),10,1,2023-05-27 14:24:28,2023-05-27 14:24:51,2023-05-27 14:22:14,2023-05-27
208,500103049,YouBike2.0_承德民生西路口,11,8,大同區,2023-05-27 14:21:15,25.05756,121.51828,承德路二段137號前,Datong Dist,YouBike2.0_Chengde Rd. & Minsheng W. Rd. Intersection,No. 137， Sec. 2， Chengde Rd.,3,1,2023-05-27 14:24:28,2023-05-27 14:24:51,2023-05-27 14:21:15,2023-05-27
210,500103051,YouBike2.0_臺北轉運站(華陰街),20,14,大同區,2023-05-27 14:23:15,25.04937,121.51914,華陰街45號(對面),Datong Dist,YouBike2.0_Taipei Bus Station (Huayin St.),No. 45， Huayin St. (Opposite),6,1,2023-05-27 14:24:28,2023-05-27 14:24:51,2023-05-27 14:23:15,2023-05-27
211,500103052,YouBike2.0_捷運民權西路站(3號出口),50,15,大同區,2023-05-27 14:24:14,25.06129,121.52021,民權西路70巷37號對面,Datong Dist,YouBike2.0_MRT Minquan W. Rd. Sta. (Exit 3),No. 37， Ln. 70， Minquan W. Rd. (Opposite),35,1,2023-05-27 14:24:28,2023-05-27 14:24:51,2023-05-27 14:24:14,2023-05-27
212,500103053,YouBike2.0_捷運中山站(5號出口),11,10,大同區,2023-05-27 14:24:14,25.05296,121.51938,南京西路57號前,Datong Dist,YouBike2.0_MRT Zhongshan Sta. (Exit 5),No. 57， Nanjing W. Rd.,1,1,2023-05-27 14:24:28,2023-05-27 14:24:51,2023-05-27 14:24:14,2023-05-27
214,500103055,YouBike2.0_承德昌吉街口,18,5,大同區,2023-05-27 14:24:14,25.06587,121.51847,承德路三段83號前,Datong Dist,YouBike2.0_Chengde Rd. & Changji St. Intersection,No. 83， Sec. 3， Chengde Rd.,13,1,2023-05-27 14:24:28,2023-05-27 14:24:51,2023-05-27 14:24:14,2023-05-27
215,500103056,YouBike2.0_大同16號廣場,14,13,大同區,2023-05-27 14:01:04,25.05658,121.50826,環河北路一段/民生西路口(東南側),Datong Dist,YouBike2.0_Datong Plaza No.16,Sec. 1， Huanhe N. Rd. & Minsheng W. Rd. Intersection (Southeast),0,1,2023-05-27 14:24:28,2023-05-27 14:24:51,2023-05-27 14:01:04,2023-05-27
216,500103057,YouBike2.0_捷運圓山站(2號出口),37,24,大同區,2023-05-27 14:24:14,25.07182,121.51929,承德路三段/庫倫街(東南側),Datong Dist,YouBike2.0_MRT Yuanshan Sta. (Exit 2),Sec. 3， Chengde Rd. & Kulun St. Intersection (Southeast),12,1,2023-05-27 14:24:28,2023-05-27 14:24:51,2023-05-27 14:24:14,2023-05-27
217,500103058,YouBike2.0_樹德公園_1,21,6,大同區,2023-05-27 14:11:14,25.06669,121.51615,大龍街/大龍街85巷(東北側),Datong Dist,YouBike2.0_Shude Park,Dalong St. & Ln. 85， Dalong St. Intersection (Northeast),15,1,2023-05-27 14:24:28,2023-05-27 14:24:51,2023-05-27 14:11:14,2023-05-27
218,500103059,YouBike2.0_承德鄭州路口(市民高架下),38,24,大同區,2023-05-27 14:24:14,25.04879,121.51626,承德路一段/鄭州路口(市民高架下),Datong Dist,YouBike2.0_Chengde Rd. & Zhengzhou Rd.  Intersection,Sec. 1， Chengde Rd. & Zhengzhou Rd. (Under  Elevated Bridge),12,1,2023-05-27 14:24:28,2023-05-27 14:24:51,2023-05-27 14:24:14,2023-05-27
219,500103060,YouBike2.0_成淵高中,14,9,大同區,2023-05-27 13:52:15,25.06036,121.51996,錦西街與錦西街52巷口東北側,Datong Dist,YouBike2.0_ChengYuan High School,Jinxi St. & Ln. 52， Jinxi St. Intersection (Northeast),5,1,2023-05-27 14:24:28,2023-05-27 14:24:51,2023-05-27 13:52:15,2023-05-27
220,500103061,YouBike2.0_雙蓮國小,20,4,大同區,2023-05-27 14:09:14,25.06157,121.51683,民權西路102巷4弄25號對側人行道,Datong Dist,YouBike2.0_ShuangLian Elementary School,No. 25， Aly. 4， Ln. 102， Minquan W. Rd. (Opposite),16,1,2023-05-27 14:24:28,2023-05-27 14:24:51,2023-05-27 14:09:14,2023-05-27
222,500103063,YouBike2.0_延平涼州街口,14,6,大同區,2023-05-27 14:17:34,25.06092,121.51126,延平北路二段/涼州街口(行人天橋下),Datong Dist,YouBike2.0_Yanping Rd. & Liangzhou St. Intersection,Sec. 2， Yanping N. Rd. & Liangzhou St. Intersection,8,1,2023-05-27 14:24:28,2023-05-27 14:24:51,2023-05-27 14:17:34,2023-05-27
224,500104002,YouBike2.0_通河東街大南路口,15,4,士林區,2023-05-27 14:17:34,25.08914,121.51542,通河東街1段192號(旁),Shilin Dist,YouBike2.0_Tonghe E. St. & Danan Rd. Intersection,No. 192， Sec.1， Tonghe E. St. (Side),10,1,2023-05-27 14:24:28,2023-05-27 14:24:51,2023-05-27 14:17:34,2023-05-27
225,500104003,YouBike2.0_福港街停車場,22,4,士林區,2023-05-27 14:24:14,25.08695,121.51901,華齡街175號(旁),Shilin Dist,YouBike2.0_Fugang St. Parking Lot,No. 175， Hualing St. (Side),18,1,2023-05-27 14:24:28,2023-05-27 14:24:51,2023-05-27 14:24:14,2023-05-27
229,500104007,YouBike2.0_中山天母路口,29,5,士林區,2023-05-27 14:21:15,25.11856,121.52964,天母西路3-55號前人行道,Shilin Dist,YouBike2.0_Zhongshan & Tianmu Rd. Intersection,No. 3-55， Tianmu W. Rd. (Front),24,1,2023-05-27 14:24:28,2023-05-27 14:24:51,2023-05-27 14:21:15,2023-05-27
230,500104008,YouBike2.0_天母運動公園,27,16,士林區,2023-05-27 14:02:14,25.11633,121.53414,忠誠路二段/忠誠路二段207巷(東南側),Shilin Dist,YouBike2.0_Tianmu Sports Park,Ln. 207， Sec.2， Zhongcheng Rd. (Southeast),11,1,2023-05-27 14:24:28,2023-05-27 14:24:51,2023-05-27 14:02:14,2023-05-27
231,500104009,YouBike2.0_臺北市立大學(天母校區),23,4,士林區,2023-05-27 14:22:14,25.11356,121.53718,士東路276號至280號對面人行道,Shilin Dist,YouBike2.0_University of Taipei (Tianmu Campus),No. 276-280， Shidong Rd. (Opposite),19,1,2023-05-27 14:24:28,2023-05-27 14:24:51,2023-05-27 14:22:14,2023-05-27
232,500104010,YouBike2.0_忠誠路二段53巷,18,10,士林區,2023-05-27 14:17:34,25.11127,121.53244,忠誠路2段53巷7號(對面),Shilin Dist,YouBike2.0_Ln. 53， Sec. 2， Zhongcheng Rd.,No.7， Ln. 53， Sec. 2， Zhongcheng Rd. (Opposite),7,1,2023-05-27 14:24:28,2023-05-27 14:24:51,2023-05-27 14:17:34,2023-05-27
233,500104012,YouBike2.0_天母棒球場,26,11,士林區,2023-05-27 14:24:14,25.11341,121.53195,忠誠路二段122號(對面),Shilin Dist,YouBike2.0_Taipei Tianmu Baseball Stadium,No. 122， Sec. 2， Zhongcheng Rd. (Opposite),14,1,2023-05-27 14:24:28,2023-05-27 14:24:51,2023-05-27 14:24:14,2023-05-27
234,500104013,YouBike2.0_天母北天玉街口,15,5,士林區,2023-05-27 14:13:14,25.12011,121.52652,天母北路33號(前),Shilin Dist,YouBike2.0_Tianmu N. Rd. & Tianyu St. Intersection,No. 33， Tianmu N. Rd.,10,1,2023-05-27 14:24:28,2023-05-27 14:24:51,2023-05-27 14:13:14,2023-05-27
235,500104014,YouBike2.0_蘭興公園,48,9,士林區,2023-05-27 14:24:14,25.11184,121.52589,中山北路六段/士東路(西北側),Shilin Dist,YouBike2.0_Lanxing Park,Sec. 6， Zhongshan N. Rd. & Shidong Rd. Intersection (Northwest),39,1,2023-05-27 14:24:28,2023-05-27 14:24:51,2023-05-27 14:24:14,2023-05-27
238,500104018,YouBike2.0_忠誠路一段173巷口,11,8,士林區,2023-05-27 13:21:17,25.10813,121.5304,忠誠路一段177號(前),Shilin Dist,YouBike2.0_No. 173， Sec. 1， Zhongcheng Rd. Intersection,No. 177， Sec. 1， Zhongcheng Rd.,3,1,2023-05-27 14:24:28,2023-05-27 14:24:51,2023-05-27 13:21:17,2023-05-27
239,500104019,YouBike2.0_雨農國小,35,4,士林區,2023-05-27 14:24:14,25.10564,121.52916,忠誠路一段127號(前),Shilin Dist,YouBike2.0_Yunong Elementary School,No. 127， Sec. 1， Zhongcheng Rd.,29,1,2023-05-27 14:24:28,2023-05-27 14:24:51,2023-05-27 14:24:14,2023-05-27
241,500104021,YouBike2.0_芝山抽水站,21,4,士林區,2023-05-27 13:41:16,25.10155,121.52832,至誠路二段47-49號(前),Shilin Dist,YouBike2.0_Zhishan Pumping Plant,No. 47， Sec. 2， Zhicheng Rd.,17,1,2023-05-27 14:24:28,2023-05-27 14:24:51,2023-05-27 13:41:16,2023-05-27
242,500104022,YouBike2.0_至誠路一段305巷口,21,7,士林區,2023-05-27 13:44:17,25.10186,121.53083,至誠路一段303號(對面),Shilin Dist,YouBike2.0_Ln. 305， Sec. 1， Zhicheng Rd. Intersection,No. 303， Sec. 1， Zhicheng Rd.,14,1,2023-05-27 14:24:28,2023-05-27 14:24:51,2023-05-27 13:44:17,2023-05-27
243,500104023,YouBike2.0_華齡公園,25,10,士林區,2023-05-27 14:19:14,25.08302,121.52069,劍潭路76號(對面),Shilin Dist,YouBike2.0_Hualing Park,No. 76， Jiantan Rd. (Opposite),14,1,2023-05-27 14:24:28,2023-05-27 14:24:51,2023-05-27 14:19:14,2023-05-27
247,500104027,YouBike2.0_百齡高中,15,5,士林區,2023-05-27 14:02:14,25.08736,121.52272,承德路四段179巷/承德路4段口,Shilin Dist,YouBike2.0_Bailing High School,Ln. 179， Sec. 4， Chengde Rd. Intersection,10,1,2023-05-27 14:24:28,2023-05-27 14:24:51,2023-05-27 14:02:14,2023-05-27
248,500104028,YouBike2.0_捷運芝山站(2號出口),21,20,士林區,2023-05-27 14:21:15,25.10364,121.52219,福華路151號(對面),Shilin Dist,YouBike2.0_MRT Zhishan Station,No. 151， Fuhua Rd. (Opposite),1,1,2023-05-27 14:24:28,2023-05-27 14:24:51,2023-05-27 14:21:15,2023-05-27
250,500104030,YouBike2.0_捷運劍潭站(2號出口),79,34,士林區,2023-05-27 14:23:15,25.08288,121.52455,基河路18號(對面),Shilin Dist,YouBike2.0_MRT Jianta Station,No.18， Jihe Rd. (Opposite),45,1,2023-05-27 14:24:28,2023-05-27 14:24:51,2023-05-27 14:23:15,2023-05-27
251,500104031,YouBike2.0_劍潭基河路口,20,8,士林區,2023-05-27 14:10:20,25.08403,121.5249,劍潭路基河路口(捷運站橋下空間),Shilin Dist,YouBike2.0_Jiantan Rd & Jihe Rd Intersection,Jiantan Rd. & Jihe Rd. Intersection,12,1,2023-05-27 14:24:28,2023-05-27 14:24:51,2023-05-27 14:10:20,2023-05-27
252,500104032,YouBike2.0_志成公園,23,4,士林區,2023-05-27 14:22:14,25.09667,121.53206,中正路/雨農路口(西北側),Shilin Dist,YouBike2.0_Zhicheng Park,Jhongjheng Rd & Yunong Rd. Intersection (Northwest),19,1,2023-05-27 14:24:28,2023-05-27 14:24:51,2023-05-27 14:22:14,2023-05-27
254,500104034,YouBike2.0_中山中正路口,19,11,士林區,2023-05-27 14:24:14,25.09651,121.52753,中山北路五段609號(前),Shilin Dist,YouBike2.0_Sec. 5， Jhongshan N. Rd & Jhongjheng Rd Intersection,No. 609， Sec. 5， Jhongshan N. Rd.,8,1,2023-05-27 14:24:28,2023-05-27 14:24:51,2023-05-27 14:24:14,2023-05-27
256,500104036,YouBike2.0_陽明高中,36,11,士林區,2023-05-27 14:24:14,25.09164,121.51706,中正路510號(前),Shilin Dist,YouBike2.0_Yangming High School,No. 510， Zhongzheng Rd.,25,1,2023-05-27 14:24:28,2023-05-27 14:24:51,2023-05-27 14:24:14,2023-05-27
257,500104037,YouBike2.0_兒童新樂園,23,23,士林區,2023-05-27 14:13:04,25.09631,121.51449,承德路五段55號(旁公車亭),Shilin Dist,YouBike2.0_Taipei Children's Amusement Park,No. 55， Sec. 5， Chengde Rd.,0,1,2023-05-27 14:24:28,2023-05-27 14:24:51,2023-05-27 14:13:04,2023-05-27
258,500104038,YouBike2.0_臺北市立天文館,31,21,士林區,2023-05-27 14:21:15,25.09598,121.51776,基河路363號(前),Shilin Dist,YouBike2.0_Taipei Astronomical Museum,No. 363， Jihe Rd.,10,1,2023-05-27 14:24:28,2023-05-27 14:24:51,2023-05-27 14:21:15,2023-05-27
260,500104040,YouBike2.0_福林公園,17,12,士林區,2023-05-27 14:19:14,25.09419,121.52833,福林路/中山北路五段(東北側),Shilin Dist,YouBike2.0_Fulin Park,Sec. 5， Zhongshan N. Rd. (Northwest),4,1,2023-05-27 14:24:28,2023-05-27 14:24:51,2023-05-27 14:19:14,2023-05-27
261,500104041,YouBike2.0_捷運士林站(2號出口),30,7,士林區,2023-05-27 14:24:14,25.09343,121.52642,中山北路五段505巷44弄2號(對面),Shilin Dist,YouBike2.0_MRT Shilin Station (Exit 2),No. 2， Aly. 44， Ln. 505， Sec. 5， Zhongshan N. Rd. (Opposite),21,1,2023-05-27 14:24:28,2023-05-27 14:24:51,2023-05-27 14:24:14,2023-05-27
263,500104043,YouBike2.0_士林高商,26,15,士林區,2023-05-27 14:07:14,25.09435,121.51702,士商路150號(校門旁),Shilin Dist,YouBike2.0_Shilin High School of Commerce,No. 150， Shishang Rd.,11,1,2023-05-27 14:24:28,2023-05-27 14:24:51,2023-05-27 14:07:14,2023-05-27
264,500104044,YouBike2.0_蘭雅公園,32,27,士林區,2023-05-27 14:23:15,25.10991,121.53039,忠誠路二段/忠誠路二段40巷(西南側),Shilin Dist,YouBike2.0_Lanya Park,Ln. 40， Sec. 2， Zhongcheng Rd. Intersection (Southwest),4,1,2023-05-27 14:24:28,2023-05-27 14:24:51,2023-05-27 14:23:15,2023-05-27
266,500104046,YouBike2.0_捷運芝山站(1號出口),36,22,士林區,2023-05-27 14:23:15,25.10225,121.52286,福華路114號(對面),Shilin Dist,YouBike2.0_MRT Zhishan Sta. (Exit 1),No. 114， Fuhua Rd. (Opposite),14,1,2023-05-27 14:24:28,2023-05-27 14:24:51,2023-05-27 14:23:15,2023-05-27
267,500104047,YouBike2.0_至誠公園,15,11,士林區,2023-05-27 14:22:14,25.10143,121.53585,至誠路一段80號(對面),Shilin Dist,YouBike2.0_Zhicheng Park,No. 80， Sec. 1， Zhicheng Rd. (Opposite),4,1,2023-05-27 14:24:28,2023-05-27 14:24:51,2023-05-27 14:22:14,2023-05-27
268,500104048,YouBike2.0_原住民文化主題公園,21,15,士林區,2023-05-27 13:50:20,25.10113,121.55159,至善路二段280號(對面),Shilin Dist,YouBike2.0_Indigenous People's Park,No. 280， Sec. 2， Zhishan Rd. (Opposite),6,1,2023-05-27 14:24:28,2023-05-27 14:24:51,2023-05-27 13:50:20,2023-05-27
269,500104049,YouBike2.0_通河東街2段10巷口,15,9,士林區,2023-05-27 14:23:15,25.09106,121.51502,通河東街2段5號(對面),Shilin Dist,YouBike2.0_Ln. 10， Sec. 2， Tonghe E. St. Intersection,No. 5， Sec. 2， Tonghe E. St. (Opposite),6,1,2023-05-27 14:24:28,2023-05-27 14:24:51,2023-05-27 14:23:15,2023-05-27
271,500104051,YouBike2.0_延平北中正路口,30,22,士林區,2023-05-27 14:13:14,25.08678,121.50948,中正路613號(對面),Shilin Dist,YouBike2.0_Yanping N. Rd & Zhongzheng Rd Intersection,No. 403， Zhongzheng Rd,8,1,2023-05-27 14:24:28,2023-05-27 14:24:51,2023-05-27 14:13:14,2023-05-27
274,500104054,YouBike2.0_葫蘆國小,20,5,士林區,2023-05-27 14:16:16,25.08254,121.5075,環河北路三段/葫蘆街(東北側),Shilin Dist,YouBike2.0_Hulu Elementary School,Sec. 3， Huanhe N. Rd & Hulu St. (Northeast),15,1,2023-05-27 14:24:28,2023-05-27 14:24:51,2023-05-27 14:16:16,2023-05-27
275,500104055,YouBike2.0_士林3號廣場,30,22,士林區,2023-05-27 14:11:14,25.10459,121.52417,中山北路六段81號(旁),Shilin Dist,YouBike2.0_Shilin Plaza,No. 81， Sec 6， Zhongshan N. Rd.,8,1,2023-05-27 14:24:28,2023-05-27 14:24:51,2023-05-27 14:11:14,2023-05-27
277,500104057,YouBike2.0_社子國小,15,11,士林區,2023-05-27 13:59:15,25.09058,121.50142,社中街476號(對面),Shilin Dist,YouBike2.0_Shezi Elementary School,No. 476， Shezhong St. (Opposite),4,1,2023-05-27 14:24:28,2023-05-27 14:24:51,2023-05-27 13:59:15,2023-05-27
278,500104058,YouBike2.0_社中街384巷口,18,11,士林區,2023-05-27 14:21:15,25.09346,121.50376,通河西街二段194號(對面),Shilin Dist,YouBike2.0_Ln. 384， Shezhong St Intersection,No. 194， Sec. 2， Tonghe W. St. (Opposite),7,1,2023-05-27 14:24:28,2023-05-27 14:24:51,2023-05-27 14:21:15,2023-05-27
279,500104059,YouBike2.0_忠誠路一段138號,15,5,士林區,2023-05-27 14:15:15,25.10641,121.52944,忠誠路一段138號(斜前方),Shilin Dist,YouBike2.0_No. 138， Sec. 1， Zhongcheng Rd,No. 138， Sec. 1， Zhongcheng Rd. (Diagonally across),9,1,2023-05-27 14:24:28,2023-05-27 14:24:51,2023-05-27 14:15:15,2023-05-27
282,500104062,YouBike2.0_泰北高中,16,4,士林區,2023-05-27 14:08:15,25.09763,121.53402,福林路240號(前),Shilin Dist,YouBike2.0_Taibei High School,No. 240， Fulin Rd.,12,1,2023-05-27 14:24:28,2023-05-27 14:24:51,2023-05-27 14:08:15,2023-05-27
284,500104064,YouBike2.0_重慶北路四段117號,18,7,士林區,2023-05-27 14:22:14,25.08279,121.51219,重慶北路四段117號(前),Shilin Dist,YouBike2.0_No. 117， Sec. 4， Chongqing N. Rd,No. 117， Sec. 4， Chongqing N. Rd.,11,1,2023-05-27 14:24:28,2023-05-27 14:24:51,2023-05-27 14:22:14,2023-05-27
285,500104065,YouBike2.0_社子島島頭公園,15,9,士林區,2023-05-27 14:04:19,25.10893,121.46639,延平北路九段323號(後方堤外),Shilin Dist,YouBike2.0_Daotou Park,No. 323， Sec. 9， Yanping N. Rd. (Back),6,1,2023-05-27 14:24:28,2023-05-27 14:24:51,2023-05-27 14:04:19,2023-05-27
287,500104067,YouBike2.0_坤天亭,14,8,士林區,2023-05-27 13:09:14,25.1064,121.4836,延平北路八段96巷15號(前),Shilin Dist,YouBike2.0_Kuntian Temple,No. 15， Ln. 96， Sec. 8， Yanping N. Rd.,5,1,2023-05-27 14:24:28,2023-05-27 14:24:51,2023-05-27 13:09:14,2023-05-27
288,500104068,YouBike2.0_社子島濕地解說小築,15,10,士林區,2023-05-27 13:55:23,25.11314,121.48974,社子島濕地解說小築,Shilin Dist,YouBike2.0_Shezidao Wetlands Service Center,Shezidao Wetlands Service Center,5,1,2023-05-27 14:24:28,2023-05-27 14:24:51,2023-05-27 13:55:23,2023-05-27
290,500104070,YouBike2.0_福安消防分隊,15,8,士林區,2023-05-27 14:10:20,25.09669,121.49706,延平北路七段42之7號(對面),Shilin Dist,YouBike2.0_Taipei City Fire Department of Fuan Station,No. 42-7， Sec. 7， Yanping N. Rd. (Opposite),6,1,2023-05-27 14:24:28,2023-05-27 14:24:51,2023-05-27 14:10:20,2023-05-27
292,500104072,YouBike2.0_芝山國小,30,9,士林區,2023-05-27 14:10:20,25.11044,121.53595,德行東路285號(德行東路283巷側人行道),Shilin Dist,YouBike2.0_Zhishan Elementary School,No. 285， Dexing E. Rd. (Ln. 283， Dexing E. Rd),20,1,2023-05-27 14:24:28,2023-05-27 14:24:51,2023-05-27 14:10:20,2023-05-27
295,500104075,YouBike2.0_中正基河路口,28,6,士林區,2023-05-27 14:22:14,25.0933,121.51962,中正路420號前,Shilin Dist,YouBike2.0_Jhongjheng Rd. & Jihe Rd. Intersection,No. 420， Jhongjheng Rd.,22,1,2023-05-27 14:24:28,2023-05-27 14:24:51,2023-05-27 14:22:14,2023-05-27
296,500104076,YouBike2.0_福林公園(中正路),27,4,士林區,2023-05-27 14:17:34,25.09609,121.53006,中正路/志成街口(南側),Shilin Dist,YouBike2.0_Fulin Park (Jhongjheng Rd.),Jhongjheng Rd. & Jhihcheng St. Intersection (South),22,1,2023-05-27 14:24:28,2023-05-27 14:24:51,2023-05-27 14:17:34,2023-05-27
297,500104077,YouBike2.0_至善臨溪路口,22,18,士林區,2023-05-27 14:23:15,25.09709,121.54229,至善路一段/臨溪路(西南側),Shilin Dist,YouBike2.0_Jhihshan Rd. & Linsi Rd. Intersection,Sec. 1， Jhihshan Rd. & Linsi Rd. Intersection (Southwest),4,1,2023-05-27 14:24:28,2023-05-27 14:24:51,2023-05-27 14:23:15,2023-05-27
298,500104078,YouBike2.0_市立圖書館葫蘆堵分館,13,10,士林區,2023-05-27 14:15:15,25.08217,121.51074,延平北路五段136巷1號前,Shilin Dist,YouBike2.0_Taipei Public Library Huludu Branch,No. 1， Ln. 136， Sec. 5， Yanping N. Rd.,3,1,2023-05-27 14:24:28,2023-05-27 14:24:51,2023-05-27 14:15:15,2023-05-27
299,500104079,YouBike2.0_東山路110巷口,16,5,士林區,2023-05-27 14:13:15,25.11306,121.53945,東山路114號對側,Shilin Dist,YouBike2.0_Ln. 110， Dongshan Rd.,No. 114， Dongshan Rd. (Opposite),11,1,2023-05-27 14:24:28,2023-05-27 14:24:51,2023-05-27 14:13:15,2023-05-27
300,500104080,YouBike2.0_永平社會住宅,15,8,士林區,2023-05-27 13:19:14,25.08887,121.50314,環河北路三段261巷2號,Shilin Dist,YouBike2.0_Yongping Social Housing,No. 2， Ln. 261， Sec. 3， Huanhe N. Rd.,7,1,2023-05-27 14:24:28,2023-05-27 14:24:51,2023-05-27 13:19:14,2023-05-27
301,500104081,YouBike2.0_雨農橋,16,11,士林區,2023-05-27 14:07:14,25.10012,121.53253,福志路14巷42號(對面),Shilin Dist,YouBike2.0_Yunong Bridge,No. 42， Ln. 14， Fuzhi Rd. (Opposite),4,1,2023-05-27 14:24:28,2023-05-27 14:24:51,2023-05-27 14:07:14,2023-05-27
310,500104090,YouBike2.0_社子國小_1,20,11,士林區,2023-05-27 14:24:14,25.09029,121.50189,延平北路六段/社中街(社子國小對面跨提便道橋下),Shilin Dist,YouBike2.0_SheZi Elementary School,Sec. 6， Yanping N. Rd./Shezhong St. Intersection (South),9,1,2023-05-27 14:24:28,2023-05-27 14:24:51,2023-05-27 14:24:14,2023-05-27
311,500104091,YouBike2.0_捷運劍潭站(1號出口),70,5,士林區,2023-05-27 14:22:14,25.08577,121.52531,捷運劍潭站(1號出口)北側,Shilin Dist,YouBike2.0_MRT Jianta Sta. (Exit 1),MRT Jianta Sta. (Exit 1) (North),65,1,2023-05-27 14:24:28,2023-05-27 14:24:51,2023-05-27 14:22:14,2023-05-27
312,500104092,YouBike2.0_德行東山路口,12,10,士林區,2023-05-27 13:58:15,25.1107,121.53999,德行東路/東山路(西北側),Shilin Dist,YouBike2.0_Dexing Rd. & Dongshan Rd. Intersection,Dexing E. Rd. & Dongshan Rd. Intersection (Northwest),1,1,2023-05-27 14:24:28,2023-05-27 14:24:51,2023-05-27 13:58:15,2023-05-27
313,500104094,YouBike2.0_重慶北通河西街口,12,8,士林區,2023-05-27 10:25:15,25.08756,121.51177,重慶北路四段276號(前),Shilin Dist,YouBike2.0_Chongqing N. Rd. & Tonghe W. St. Intersection,No. 276， Sec. 4， Chongqing N. Rd.,4,1,2023-05-27 14:24:28,2023-05-27 14:24:51,2023-05-27 10:25:15,2023-05-27
316,500104097,YouBike2.0_士林區農會社子分部,8,6,士林區,2023-05-27 14:12:14,25.08912,121.5049,社子街162號旁,Shilin Dist,YouBike2.0_Shilin District Farmers' Association (Shezi St.),No. 162， Shezi St.,2,1,2023-05-27 14:24:28,2023-05-27 14:24:51,2023-05-27 14:12:14,2023-05-27
317,500104098,YouBike2.0_承德劍潭路口,19,16,士林區,2023-05-27 14:15:15,25.0841,121.52341,承德路四段與劍潭路口西側,Shilin Dist,YouBike2.0_Chengde Rd. & Jiantan Rd. Intersection,Sec. 4， Chengde Rd. & Jiantan Rd. Intersection (West),3,1,2023-05-27 14:24:28,2023-05-27 14:24:51,2023-05-27 14:15:15,2023-05-27
319,500104100,YouBike2.0_延平北路五段257巷15弄口,13,5,士林區,2023-05-27 14:18:13,25.08408,121.50959,葫蘆街184號對側,Shilin Dist,YouBike2.0_Aly. 15， Ln. 257， Sec. 5， Yanping N. Rd.,No. 184， Hulu St.,8,1,2023-05-27 14:24:28,2023-05-27 14:24:51,2023-05-27 14:18:13,2023-05-27
320,500104101,YouBike2.0_延平北路五段257巷4弄口,15,12,士林區,2023-05-27 13:55:23,25.08471,121.5089,延平北路五段257巷17號前,Shilin Dist,YouBike2.0_Aly. 4， Ln. 257， Sec. 5， Yanping N. Rd.,No. 17， Ln. 257， Sec. 5， Yanping N. Rd.,3,1,2023-05-27 14:24:28,2023-05-27 14:24:51,2023-05-27 13:55:23,2023-05-27
321,500104102,YouBike2.0_啟明學校,16,12,士林區,2023-05-27 14:14:14,25.11742,121.53472,忠誠路二段200號(新光三越天母店)對側,Shilin Dist,YouBike2.0_Taipei School For The Visually Impaired,No. 200， Sec. 2， Zhongcheng Rd. (Opposite),3,1,2023-05-27 14:24:28,2023-05-27 14:24:51,2023-05-27 14:14:14,2023-05-27
322,500104103,YouBike2.0_中山福國路口,14,4,士林區,2023-05-27 12:45:15,25.10203,121.52561,中山北路五段837號前,Shilin Dist,YouBike2.0_Zhongshan N. Rd. & Fuguo Rd. Intersection,No. 837， Sec. 5， Zhongshan N. Rd.,8,1,2023-05-27 14:24:28,2023-05-27 14:24:51,2023-05-27 12:45:15,2023-05-27
323,500104104,YouBike2.0_德行公園,14,9,士林區,2023-05-27 13:56:15,25.10585,121.52376,德行西路33號對側,Shilin Dist,YouBike2.0_Dexing Park,No. 33， Dexing W. Rd. (Opposite),5,1,2023-05-27 14:24:28,2023-05-27 14:24:51,2023-05-27 13:56:15,2023-05-27
324,500104105,YouBike2.0_承德後港街口,11,6,士林區,2023-05-27 14:22:14,25.08238,121.52309,承德路四段/後港街口,Shilin Dist,YouBike2.0_Chengde Rd & Hougang St. Intersection,Sec. 4， Chengde Rd & Hougang St. Intersection,4,1,2023-05-27 14:24:28,2023-05-27 14:24:51,2023-05-27 14:22:14,2023-05-27
325,500104106,YouBike2.0_中山北路五段698巷口,15,4,士林區,2023-05-27 14:16:16,25.09765,121.52757,中山北路五段692號前,Shilin Dist,YouBike2.0_Ln. 698， Sec. 5， Zhongshan N. Rd.,No. 692， Sec. 5， Zhongshan N. Rd.,11,1,2023-05-27 14:24:28,2023-05-27 14:24:51,2023-05-27 14:16:16,2023-05-27
326,500104107,YouBike2.0_捷運士林站(1號出口),38,7,士林區,2023-05-27 14:21:15,25.09561,121.52552,中正路236巷/中正路口,Shilin Dist,YouBike2.0_MRT Shilin Sta. (Exit 1),Ln. 236， Zhongzheng Rd. & Zhongzheng Rd. Intersection,28,1,2023-05-27 14:24:28,2023-05-27 14:24:51,2023-05-27 14:21:15,2023-05-27
327,500104108,YouBike2.0_捷運芝山站(2號出口)_1,62,33,士林區,2023-05-27 14:22:14,25.10336,121.52263,福華路/福華路162巷(東南側),Shilin Dist,YouBike2.0_MRT Zhishan Sta. (Exit 2)_1,Fuhua Rd. & Ln. 162， Fuhua Rd. Intersection (Southeast),29,1,2023-05-27 14:24:28,2023-05-27 14:24:51,2023-05-27 14:22:14,2023-05-27
328,500104109,YouBike2.0_銘傳大學(中山北路五段280巷口),23,19,士林區,2023-05-27 14:22:14,25.08762,121.52711,中山北路五段280巷口,Shilin Dist,YouBike2.0_MCU (Ln. 280， Sec. 5， Zhongshan N. Rd.),Ln. 280， Sec. 5， Zhongshan N. Rd.,4,1,2023-05-27 14:24:28,2023-05-27 14:24:51,2023-05-27 14:22:14,2023-05-27
329,500104110,YouBike2.0_海光公園南側,12,4,士林區,2023-05-27 14:09:14,25.08036,121.5084,葫蘆街79號對側公園,Shilin Dist,YouBike2.0_Haiguang Park (South),No. 79， Hulu St. (Opposite),8,1,2023-05-27 14:24:28,2023-05-27 14:24:51,2023-05-27 14:09:14,2023-05-27
331,500104112,YouBike2.0_劍潭郵局,16,11,士林區,2023-05-27 14:21:15,25.08182,121.52431,基河路/承德路四段77巷口(捷運橋下),Shilin Dist,YouBike2.0_Shihlin Jiantan Post Office,Jihe Rd. & Ln. 77， Sec. 4， Chengde Rd. Intersection (Under Bridge),5,1,2023-05-27 14:24:28,2023-05-27 14:24:51,2023-05-27 14:21:15,2023-05-27
332,500104113,YouBike2.0_士東路91巷口,16,13,士林區,2023-05-27 14:21:15,25.11247,121.52914,士東路91巷3號旁,Shilin Dist,YouBike2.0_Ln. 91， Shidong Rd.,No. 3， Ln. 91， Shidong Rd.,3,1,2023-05-27 14:24:28,2023-05-27 14:24:51,2023-05-27 14:21:15,2023-05-27
335,500104116,YouBike2.0_天母東路8巷/忠誠路二段154巷口,14,10,士林區,2023-05-27 14:15:15,25.11579,121.53113,天母東路8巷57號對側,Shilin Dist,YouBike2.0_Ln. 8， Tianmu E. Rd. & Ln. 154， Sec. 2， Zhongcheng Rd. Intersection,No. 57， Ln. 8， Tianmu E. Rd. (Opposite),4,1,2023-05-27 14:24:28,2023-05-27 14:24:51,2023-05-27 14:15:15,2023-05-27
340,500105004,YouBike2.0_萬和二號公園,26,4,文山區,2023-05-27 14:03:15,25.00154,121.5364,萬隆街255號(對面),Wenshan Dist,YouBike2.0_Wanhe 2nd Park,No. 255， Wanlong St.,22,1,2023-05-27 14:24:28,2023-05-27 14:24:51,2023-05-27 14:03:15,2023-05-27
341,500105005,YouBike2.0_捷運萬隆站(2號出口),12,11,文山區,2023-05-27 14:24:14,25.00144,121.53983,興隆路一段70巷/羅斯福路5段211巷26弄口,Wenshan Dist,YouBike2.0_MRT Wanlong Sta. (Exit 2),Ln. 70， Sec. 1， Xinrong Rd. & Aly. 26， Ln. 211， Sec. 5， Roosevelt Rd.,0,1,2023-05-27 14:24:28,2023-05-27 14:24:51,2023-05-27 14:24:14,2023-05-27
342,500105006,YouBike2.0_景仁公園,16,9,文山區,2023-05-27 14:03:15,24.99621,121.54043,羅斯福路六段142巷1號(旁),Wenshan Dist,YouBike2.0_Jingren Park,No. 1， Ln. 142， Sec. 6， Roosevelt Rd.,7,1,2023-05-27 14:24:28,2023-05-27 14:24:51,2023-05-27 14:03:15,2023-05-27
343,500105007,YouBike2.0_捷運景美站(2號出口),63,26,文山區,2023-05-27 14:16:16,24.99366,121.54124,景文街1號(對面),Wenshan Dist,YouBike2.0_MRT Jingmei Sta. (Exit 2),No. 1， Jingwen St. (Opposite),37,1,2023-05-27 14:24:28,2023-05-27 14:24:51,2023-05-27 14:16:16,2023-05-27
344,500105008,YouBike2.0_羅斯福景隆街口,20,9,文山區,2023-05-27 14:21:15,24.99898,121.5403,羅斯福路六段/景隆街口(東南側),Wenshan Dist,YouBike2.0_Roosevelt Jinglong St. Intersection,Sec. 6， Roosevelt Rd. & Jinglong St. Intersection (Southeast),11,1,2023-05-27 14:24:28,2023-05-27 14:24:51,2023-05-27 14:21:15,2023-05-27
345,500105009,YouBike2.0_景福街/羅斯福路6段142巷口,28,14,文山區,2023-05-27 14:03:15,24.99812,121.53663,景福街/羅斯福路6段142巷口,Wenshan Dist,YouBike2.0_Jingfu St & Ln. 142， Sec. 6， Roosevelt Rd Intersection,Jingfu St & Ln. 142， Sec. 6， Roosevelt Rd Intersection.,14,1,2023-05-27 14:24:28,2023-05-27 14:24:51,2023-05-27 14:03:15,2023-05-27
346,500105010,YouBike2.0_興旺公園,30,18,文山區,2023-05-27 14:17:34,25.00587,121.55012,福興路106巷28弄96號(對面),Wenshan Dist,YouBike2.0_Xingwang Park,No. 96， Aly. 28， Ln. 106， Fuxing Rd. (Opposite),11,1,2023-05-27 14:24:28,2023-05-27 14:24:51,2023-05-27 14:17:34,2023-05-27
348,500105012,YouBike2.0_興隆路2段203巷,32,14,文山區,2023-05-27 14:21:15,25.00346,121.54709,興隆路2段203巷108號(對面),Wenshan Dist,YouBike2.0_Ln. 203， Sec. 2， Xinglong Rd,No. 108， Ln. 203， Sec. 2， Xinglong Rd (Opposite),18,1,2023-05-27 14:24:28,2023-05-27 14:24:51,2023-05-27 14:21:15,2023-05-27
351,500105015,YouBike2.0_師範大學公館校區,14,10,文山區,2023-05-27 14:21:15,25.00792,121.53731,汀州路四段77號(旁),Wenshan Dist,YouBike2.0_National Taiwan Normal University Gongguan Campus,No. 77， Sec. 4， Tingzhou Rd.,3,1,2023-05-27 14:24:28,2023-05-27 14:24:51,2023-05-27 14:21:15,2023-05-27
352,500105016,YouBike2.0_景華街128巷口,20,8,文山區,2023-05-27 14:15:15,24.99543,121.54725,景華街124號(旁汽車格),Wenshan Dist,YouBike2.0_Ln 128， Jinghua St.,No. 124， Jinghua St.,10,1,2023-05-27 14:24:28,2023-05-27 14:24:51,2023-05-27 14:15:15,2023-05-27
353,500105017,YouBike2.0_仙跡岩登山口(景興路),22,12,文山區,2023-05-27 14:17:34,24.99118,121.5436,景興街239號(前),Wenshan Dist,YouBike2.0_Xianjiyan Trailhead (Jingxing Rd.),No. 239， Jingxing Rd.,10,1,2023-05-27 14:24:28,2023-05-27 14:24:51,2023-05-27 14:17:34,2023-05-27
354,500105018,YouBike2.0_國立政治大學,35,7,文山區,2023-05-27 14:15:15,24.98737,121.57726,指南路二段153號(對面),Wenshan Dist,YouBike2.0_National Chengchi University,No. 153， Sec. 2， Zhinan Rd. (Opposite),28,1,2023-05-27 14:24:28,2023-05-27 14:24:51,2023-05-27 14:15:15,2023-05-27
356,500105020,YouBike2.0_捷運木柵站,31,4,文山區,2023-05-27 14:11:14,24.99798,121.57455,木柵路四段82巷18號前(捷運橋樑下),Wenshan Dist,YouBike2.0_MRT Muzha Sta.,No. 18， Ln. 82， Sec. 4， Muzha Rd. (Under The MRT Bridge),27,1,2023-05-27 14:24:28,2023-05-27 14:24:51,2023-05-27 14:11:14,2023-05-27
358,500105022,YouBike2.0_文山運動中心,20,14,文山區,2023-05-27 14:22:14,24.99676,121.5596,興隆路三段/興隆路三段192巷8弄,Wenshan Dist,YouBike2.0_Wen Shan Sports Center,Sec. 3， Xinglong Rd./Aly. 8， Ln. 192， Sec. 3， Xinglong Rd.,6,1,2023-05-27 14:24:28,2023-05-27 14:24:51,2023-05-27 14:22:14,2023-05-27
359,500105023,YouBike2.0_捷運辛亥站,29,13,文山區,2023-05-27 14:17:34,25.00467,121.55684,辛亥路四段114號(旁人行道),Wenshan Dist,YouBike2.0_MRT Xinhai Sta.,No. 114， Sec. 4， Xinhai Rd.,14,1,2023-05-27 14:24:28,2023-05-27 14:24:51,2023-05-27 14:17:34,2023-05-27
360,500105024,YouBike2.0_興豐公園,21,4,文山區,2023-05-27 14:15:15,24.99982,121.54761,興隆路二段123巷/興隆路二段(西北側),Wenshan Dist,YouBike2.0_Xingfeng Park,Ln. 123， Sec. 2， Xinglong Rd./Sec. 2， Xinglong Rd. (Northwest),16,1,2023-05-27 14:24:28,2023-05-27 14:24:51,2023-05-27 14:15:15,2023-05-27
361,500105025,YouBike2.0_木柵光輝路口,19,14,文山區,2023-05-27 14:14:14,24.98816,121.55528,木柵路一段290號(旁),Wenshan Dist,YouBike2.0_Muzha Rd. & Guanghui Rd. Intersection,No. 290， Sec. 1， Muzha Rd.,5,1,2023-05-27 14:24:28,2023-05-27 14:24:51,2023-05-27 14:14:14,2023-05-27
362,500105026,YouBike2.0_考試院,22,5,文山區,2023-05-27 14:21:15,24.98747,121.54984,試院路(雙號)/木柵路一段(東北側),Wenshan Dist,YouBike2.0_Examination Yuan,Shiyuan Rd.(Double number)/ Sec. 1， Muzha Rd. (Northeast),15,1,2023-05-27 14:24:28,2023-05-27 14:24:51,2023-05-27 14:21:15,2023-05-27
363,500105027,YouBike2.0_和興路26巷口,15,4,文山區,2023-05-27 14:19:14,24.98573,121.54532,和興路44巷 / 和興路26巷口,Wenshan Dist,YouBike2.0_No. 26， Hexing St. Intersection,No. 44， Hexing St./No. 26， Hexing St. Intersection,10,1,2023-05-27 14:24:28,2023-05-27 14:24:51,2023-05-27 14:19:14,2023-05-27
364,500105028,YouBike2.0_世新大學,30,13,文山區,2023-05-27 14:16:16,24.98859,121.54336,木柵路一段17巷1號(西側),Wenshan Dist,YouBike2.0_Shih Hsin University,No. 1， Ln. 17， Sec. 1， Muzha Rd. (West),17,1,2023-05-27 14:24:28,2023-05-27 14:24:51,2023-05-27 14:16:16,2023-05-27
365,500105029,YouBike2.0_一壽橋,16,11,文山區,2023-05-27 14:21:15,24.97837,121.55548,樟新街64號前方,Wenshan Dist,YouBike2.0_Yishou Bridge,No. 64， Zhangxin St.,4,1,2023-05-27 14:24:28,2023-05-27 14:24:51,2023-05-27 14:21:15,2023-05-27
367,500105031,YouBike2.0_永安藝文館-表演36房,15,12,文山區,2023-05-27 14:06:16,24.98414,121.56907,木新路二段156號前人行道(永安市場),Wenshan Dist,YouBike2.0_Performing Arts School 36,No. 156， Sec. 2， Muxin Rd. (Yongan Market),3,1,2023-05-27 14:24:28,2023-05-27 14:24:51,2023-05-27 14:06:16,2023-05-27
368,500105032,YouBike2.0_忠順區民活動中心,15,5,文山區,2023-05-27 14:24:14,24.98471,121.56332,忠順街二段22號前方人行道(忠順區民活動中心),Wenshan Dist,YouBike2.0_Zhongshun Community Center,No. 22， Sec. 2， Zhongshun St.,10,1,2023-05-27 14:24:28,2023-05-27 14:24:51,2023-05-27 14:24:14,2023-05-27
369,500105033,YouBike2.0_景文中學,36,7,文山區,2023-05-27 14:12:14,24.98574,121.56745,保儀路/木柵路三段102巷口(西南側),Wenshan Dist,YouBike2.0_Jingwen Bilingual High School,Baoyi Rd./Ln. 102， Sec. 3， Muxin Rd. Intersection (Southwest),29,1,2023-05-27 14:24:28,2023-05-27 14:24:51,2023-05-27 14:12:14,2023-05-27
371,500105035,YouBike2.0_文山行政中心,18,10,文山區,2023-05-27 13:27:14,24.98959,121.56959,木柵路三段220號(前),Wenshan Dist,YouBike2.0_Wenshan District Admin. Center,No. 220， Sec. 3， Muzha Rd.,8,1,2023-05-27 14:24:28,2023-05-27 14:24:51,2023-05-27 13:27:14,2023-05-27
373,500105037,YouBike2.0_興隆公共住宅D2區,19,6,文山區,2023-05-27 14:21:15,24.98814,121.56356,興隆路四段105巷49號(旁),Wenshan Dist,YouBike2.0_Xinglong Public Housing (D2),No. 49， Ln. 105， Sec. 4， Xinglong Rd.,13,1,2023-05-27 14:24:28,2023-05-27 14:24:51,2023-05-27 14:21:15,2023-05-27
374,500105038,YouBike2.0_木新路3段95巷口,16,7,文山區,2023-05-27 14:17:34,24.98088,121.56313,木新路三段95巷30號(對面),Wenshan Dist,YouBike2.0_Ln. 95， Sec. 3， Muxin Rd. Intersection,No. 30， Ln. 95， Sec. 3， Muxin Rd. (Opposite),7,1,2023-05-27 14:24:28,2023-05-27 14:24:51,2023-05-27 14:17:34,2023-05-27
375,500105039,YouBike2.0_樟腳里公園,15,10,文山區,2023-05-27 14:04:19,24.98181,121.56567,木新路二段299巷15號(旁),Wenshan Dist,YouBike2.0_Zhangjiaoli Park,No. 15， Ln. 299， Sec. 2， Muxin Rd. (Opposite),5,1,2023-05-27 14:24:28,2023-05-27 14:24:51,2023-05-27 14:04:19,2023-05-27
376,500105040,YouBike2.0_實踐國中,14,13,文山區,2023-05-27 13:55:23,24.98301,121.55404,忠順街一段2號(旁),Wenshan Dist,YouBike2.0_Shijian Junior High School,No. 2， Sec. 1， Zhongshun St.,1,1,2023-05-27 14:24:28,2023-05-27 14:24:51,2023-05-27 13:55:23,2023-05-27
379,500105043,YouBike2.0_木柵社會住宅,12,5,文山區,2023-05-27 14:16:16,24.98935,121.56651,久康街24巷46號對側,Wenshan Dist,YouBike2.0_Muzha Social Housing,No. 46， Ln. 24， Jiukang St. (Opposite),7,1,2023-05-27 14:24:28,2023-05-27 14:24:51,2023-05-27 14:16:16,2023-05-27
384,500105048,YouBike2.0_捷運萬芳醫院站(興隆路三段115巷),20,8,文山區,2023-05-27 14:23:15,24.99939,121.55848,興隆路三段115巷2號,Wenshan Dist,YouBike2.0_MRT Wanfang Hospital Sta. (Ln. 115， Sec. 3， Xinglong Rd.),No. 2， Ln. 115， Sec. 3， Xinglong Rd.,12,1,2023-05-27 14:24:28,2023-05-27 14:24:51,2023-05-27 14:23:15,2023-05-27
386,500105050,YouBike2.0_辛亥生態公園,18,5,文山區,2023-05-27 13:23:15,25.00348,121.55642,辛亥路四段199號,Wenshan Dist,YouBike2.0_Xinhai Ecological Park,No. 199， Sec. 4， Xinhai Rd.,13,1,2023-05-27 14:24:28,2023-05-27 14:24:51,2023-05-27 13:23:15,2023-05-27
388,500105052,YouBike2.0_國立政治大學(萬壽路),56,10,文山區,2023-05-27 14:14:14,24.98841,121.57649,萬壽路16巷6號(前),Wenshan Dist,YouBike2.0_National Chengchi University (Wanshou Rd.),No.6， Ln. 16， Wanshou Rd.,44,1,2023-05-27 14:24:28,2023-05-27 14:24:51,2023-05-27 14:14:14,2023-05-27
389,500105053,YouBike2.0_仙岩公園,11,6,文山區,2023-05-27 14:14:14,24.99797,121.54982,仙岩路16巷37號旁,Wenshan Dist,YouBike2.0_Sian Yan Park,No. 37， Ln. 16， Xianyan Rd.,5,1,2023-05-27 14:24:28,2023-05-27 14:24:51,2023-05-27 14:14:14,2023-05-27
392,500105056,YouBike2.0_移民署訓練中心,13,8,文山區,2023-05-27 13:30:39,24.99271,121.55865,興隆路三段306號,Wenshan Dist,YouBike2.0_National Immigration Agency Training Center,No. 306， Sec. 3， Xinglong Rd.,5,1,2023-05-27 14:24:28,2023-05-27 14:24:51,2023-05-27 13:30:39,2023-05-27
395,500105059,YouBike2.0_木南公園,12,6,文山區,2023-05-27 14:16:16,24.98662,121.57071,木新路二段永安街22巷口,Wenshan Dist,YouBike2.0_Mu Nan Park,Sec. 2， Muxin Rd. & Ln. 22， Yong'an St. Intersection,6,1,2023-05-27 14:24:28,2023-05-27 14:24:51,2023-05-27 14:16:16,2023-05-27
396,500105060,YouBike2.0_實踐國中(木新路三段310巷口),17,10,文山區,2023-05-27 13:42:14,24.98339,121.55645,忠順街一段木新路三段310巷口,Wenshan Dist,YouBike2.0_Shijian Junior High School (Ln. 310， Sec. 3， Muxin Rd.),Sec. 1， Zhongshun St. & Ln. 310， Sec. 3， Muxin Rd. Intersection,4,1,2023-05-27 14:24:28,2023-05-27 14:24:51,2023-05-27 13:42:14,2023-05-27
403,500105067,YouBike2.0_萬和三號公園(北側),13,4,文山區,2023-05-27 14:23:15,25.00345,121.53636,溪洲街107巷(公園北側),Wenshan Dist,YouBike2.0_Wan He NO.3 Park,Ln. 107， Xizhou St.,7,1,2023-05-27 14:24:28,2023-05-27 14:24:51,2023-05-27 14:23:15,2023-05-27
407,500105071,YouBike2.0_景行公園,15,12,文山區,2023-05-27 14:06:16,24.99279,121.54255,景中街與景中街30巷口,Wenshan Dist,YouBike2.0_Jing Sing Park,Jingzhong St. & Ln. 30， Jingzhong St. Intersection,2,1,2023-05-27 14:24:28,2023-05-27 14:24:51,2023-05-27 14:06:16,2023-05-27
411,500105075,YouBike2.0_木柵路三段48巷,15,8,文山區,2023-05-27 13:43:14,24.98768,121.56565,木柵路三段48巷1弄口,Wenshan Dist,YouBike2.0_Ln. 48， Sec. 3， Muzha Rd.,Aly. 1， Ln. 48， Sec. 3， Muzha Rd.,7,1,2023-05-27 14:24:28,2023-05-27 14:24:51,2023-05-27 13:43:14,2023-05-27
413,500105077,YouBike2.0_試院公園,15,10,文山區,2023-05-27 14:22:14,24.98808,121.54723,木柵路一段59巷29號對側,Wenshan Dist,YouBike2.0_Shih Yuan Park,No. 29， Ln. 59， Sec. 1， Muzha Rd. (Opposite),5,1,2023-05-27 14:24:28,2023-05-27 14:24:51,2023-05-27 14:22:14,2023-05-27
415,500105081,YouBike2.0_興隆路二段203巷(敦南),27,4,文山區,2023-05-27 13:32:14,25.00198,121.54856,興隆路二段203巷16號,Wenshan Dist,YouBike2.0_Ln. 203， Sec. 2， Xinglong Rd. (Dunnan),No. 16， Ln. 203， Sec. 2， Xinglong Rd.,22,1,2023-05-27 14:24:28,2023-05-27 14:24:51,2023-05-27 13:32:14,2023-05-27
417,500106001,YouBike2.0_臺北自來水事業處,20,9,中正區,2023-05-27 14:24:14,25.013741,121.53068,思源街1號東側,Zhongzheng Dist,YouBike2.0_Taipei Water Department,No.1， Siyuan St. (East),11,1,2023-05-27 14:24:28,2023-05-27 14:24:51,2023-05-27 14:24:14,2023-05-27
419,500106003,YouBike2.0_捷運公館站(1號出口),12,5,中正區,2023-05-27 14:24:14,25.014529,121.534374,羅斯福路四段68號,Zhongzheng Dist,YouBike2.0_MRT Gongguan Sta. (Exit 1),No.68， Sec. 4， Roosevelt Rd.,7,1,2023-05-27 14:24:28,2023-05-27 14:24:51,2023-05-27 14:24:14,2023-05-27
421,500106005,YouBike2.0_捷運古亭站(9號出口),20,14,中正區,2023-05-27 14:21:15,25.02694,121.52224,羅斯福路二段100號(前方),Zhongzheng Dist,YouBike2.0_MRT Guting Sta. (Exit 9),No. 100， Sec. 2， Roosevelt Rd,6,1,2023-05-27 14:24:28,2023-05-27 14:24:51,2023-05-27 14:21:15,2023-05-27
422,500106006,YouBike2.0_捷運古亭站(2號出口),55,43,中正區,2023-05-27 14:09:14,25.0255,121.52346,羅斯福路二段168號前,Zhongzheng Dist,YouBike2.0_MRT Guting Sta. (Exit 2),No. 168， Sec. 2， Roosevelt Rd,12,1,2023-05-27 14:24:28,2023-05-27 14:24:51,2023-05-27 14:09:14,2023-05-27
426,500106010,YouBike2.0_紀州庵,25,6,中正區,2023-05-27 14:22:14,25.02092,121.52049,水源路/同安街口(東側),Zhongzheng Dist,YouBike2.0_Jizhouan Heritage Building,Shuiyuan Rd & Tong'an St Intersection (East),19,1,2023-05-27 14:24:28,2023-05-27 14:24:51,2023-05-27 14:22:14,2023-05-27
427,500106011,YouBike2.0_捷運臺電大樓站(5號出口),14,4,中正區,2023-05-27 14:21:15,25.02075,121.52771,羅斯福路三段126號前,Zhongzheng Dist,YouBike2.0_MRT Taipower Building Sta. (Exit 5),No. 126， Sec. 3， Roosevelt Rd,10,1,2023-05-27 14:24:28,2023-05-27 14:24:51,2023-05-27 14:21:15,2023-05-27
428,500106012,YouBike2.0_捷運臺電大樓站(4號出口),13,5,中正區,2023-05-27 13:47:14,25.02102,121.52751,師大路/羅斯福路三段西側,Zhongzheng Dist,YouBike2.0_MRT Taipower Building Sta. (Exit 4),Shida Rd & Sec. 3， Roosevelt Rd (West),8,1,2023-05-27 14:24:28,2023-05-27 14:24:51,2023-05-27 13:47:14,2023-05-27
431,500106015,YouBike2.0_捷運古亭站(8號出口),15,4,中正區,2023-05-27 14:21:15,25.02701,121.52164,和平西路一段13-1號前方,Zhongzheng Dist,YouBike2.0_MRT Guting Sta. (Exit 8),No. 13-1， Sec. 1， Heping W. Rd.,10,1,2023-05-27 14:24:28,2023-05-27 14:24:51,2023-05-27 14:21:15,2023-05-27
433,500106017,YouBike2.0_南昌公園,41,38,中正區,2023-05-27 14:24:14,25.02698,121.52081,和平西路一段與南昌路二段口西北側,Zhongzheng Dist,YouBike2.0_Nanchang Park,Sec. 1， Heping W. Rd. & Sec. 2， Nanchang Rd. Intersection (Northwest),3,1,2023-05-27 14:24:28,2023-05-27 14:24:51,2023-05-27 14:24:14,2023-05-27
435,500106019,YouBike2.0_孫立人將軍官邸,23,4,中正區,2023-05-27 14:16:16,25.02933,121.51854,南昌路一段136號前,Zhongzheng Dist,YouBike2.0_Gen.Sun Li-Jen Residence,No. 136， Nanchang Rd.,18,1,2023-05-27 14:24:28,2023-05-27 14:24:51,2023-05-27 14:16:16,2023-05-27
438,500106022,YouBike2.0_捷運中正紀念堂站(3號出口),18,13,中正區,2023-05-27 14:24:14,25.03239,121.51866,金華街17號前方,Zhongzheng Dist,YouBike2.0_MRT C.K.S. Memorial Hall Sta. (Exit 3),No. 17， Jinhua St.,4,1,2023-05-27 14:24:28,2023-05-27 14:24:51,2023-05-27 14:24:14,2023-05-27
439,500106023,YouBike2.0_捷運中正紀念堂站(4號出口),21,8,中正區,2023-05-27 14:22:14,25.03376,121.51772,羅斯福路一段5號前方,Zhongzheng Dist,YouBike2.0_MRT C.K.S. Memorial Hall Sta. (Exit 4),No. 5， Sec. 1， Roosevelt Rd.,12,1,2023-05-27 14:24:28,2023-05-27 14:24:51,2023-05-27 14:22:14,2023-05-27
440,500106024,YouBike2.0_重慶南海路口西南側,16,14,中正區,2023-05-27 14:21:15,25.03124,121.51459,重慶南路二段與南海路口西南側,Zhongzheng Dist,YouBike2.0_Chongqing & Nanhai Rd. Intersection,Sec. 2， Chongqing S. Rd. & Nanhai Rd. Intersection (Southwest),1,1,2023-05-27 14:24:28,2023-05-27 14:24:51,2023-05-27 14:21:15,2023-05-27
442,500106026,YouBike2.0_古亭智慧圖書館,14,5,中正區,2023-05-27 14:16:16,25.02543,121.51052,中華路二段443巷45號前,Zhongzheng Dist,YouBike2.0_Guting Intelligent Library,No. 45， Ln. 443， Sec. 2， Zhonghua Rd,9,1,2023-05-27 14:24:28,2023-05-27 14:24:51,2023-05-27 14:16:16,2023-05-27
443,500106027,YouBike2.0_永昌公園,15,4,中正區,2023-05-27 13:41:16,25.02643,121.50936,詔安街224號前,Zhongzheng Dist,YouBike2.0_Yongchang Park,No. 224， Zhao'an St.,5,1,2023-05-27 14:24:28,2023-05-27 14:24:51,2023-05-27 13:41:16,2023-05-27
445,500106029,YouBike2.0_南機場夜市(中華路二段),41,17,中正區,2023-05-27 14:24:14,25.02886,121.50518,中華路二段305巷至307巷,Zhongzheng Dist,YouBike2.0_Nanjichang Night Market (Sec. 2， Zhonghua Rd),Ln. 305-307， Sec. 2， Zhonghua Rd,24,1,2023-05-27 14:24:28,2023-05-27 14:24:51,2023-05-27 14:24:14,2023-05-27
446,500106030,YouBike2.0_南海和平路口西南側,19,5,中正區,2023-05-27 14:17:34,25.03024,121.50904,南海路與和平西路二段西南側,Zhongzheng Dist,YouBike2.0_Nanhai Rd & Sec. 2， Heping W. Rd (Southwest),Nanhai Rd & Sec. 2， Heping W. Rd (Southwest),14,1,2023-05-27 14:24:28,2023-05-27 14:24:51,2023-05-27 14:17:34,2023-05-27
447,500106031,YouBike2.0_莒光和平路口,20,6,中正區,2023-05-27 14:14:14,25.03132,121.50745,莒光路2號前,Zhongzheng Dist,YouBike2.0_Juguang Rd & Sec. 2， Heping W. Rd Intersection,No. 2， Juguang Rd.,14,1,2023-05-27 14:24:28,2023-05-27 14:24:51,2023-05-27 14:14:14,2023-05-27
448,500106037,YouBike2.0_水源路11-1號旁,19,9,中正區,2023-05-27 14:22:14,25.01602,121.52565,水源路11-1號(旁),Zhongzheng Dist,YouBike2.0_No. 11-1， Shuiyuan Rd,No. 11-1， Shuiyuan Rd.,10,1,2023-05-27 14:24:28,2023-05-27 14:24:51,2023-05-27 14:22:14,2023-05-27
450,500106039,YouBike2.0_捷運小南門站(2號出口),18,5,中正區,2023-05-27 14:19:14,25.03567,121.51006,愛國西路30號之2前方,Zhongzheng Dist,YouBike2.0_MRT Xiaonanmen Sta. (Exit 2),No. 30-2， Aiguo West Rd.,12,1,2023-05-27 14:24:28,2023-05-27 14:24:51,2023-05-27 14:19:14,2023-05-27
451,500106040,YouBike2.0_介壽公園,23,13,中正區,2023-05-27 14:16:16,25.03907,121.5138,貴陽街懷寧街口(東北側),Zhongzheng Dist,YouBike2.0_Jieshou Park,Guiyang St & Huaining St Intersection (Northeast),10,1,2023-05-27 14:24:28,2023-05-27 14:24:51,2023-05-27 14:16:16,2023-05-27
452,500106041,YouBike2.0_中華貴陽街口,20,4,中正區,2023-05-27 14:23:15,25.03938,121.50772,貴陽街一段243之1號(前),Zhongzheng Dist,YouBike2.0_Zhonghua Rd & Guiyang St Intersection,No. 234-1， Sec. 1， Guiyang St.,16,1,2023-05-27 14:24:28,2023-05-27 14:24:51,2023-05-27 14:23:15,2023-05-27
453,500106042,YouBike2.0_華山文創園區,39,11,中正區,2023-05-27 14:22:14,25.04367,121.52849,忠孝東路二段41號,Zhongzheng Dist,YouBike2.0_Huashan 1914 Creative Park,No. 41， Sec. 2， Zhongxiao E. Rd.,28,1,2023-05-27 14:24:28,2023-05-27 14:24:51,2023-05-27 14:22:14,2023-05-27
454,500106043,YouBike2.0_捷運善導寺站(1號出口),33,19,中正區,2023-05-27 14:23:15,25.04527,121.5222,忠孝東路一段7號,Zhongzheng Dist,YouBike2.0_MRT Shandao Temple Sta (Exit 1),No. 7， Sec. 1， Zhongxiao E. Rd.,14,1,2023-05-27 14:24:28,2023-05-27 14:24:51,2023-05-27 14:23:15,2023-05-27
456,500106046,YouBike2.0_林森仁愛路口,13,9,中正區,2023-05-27 14:21:15,25.03915,121.52163,林森南路與仁愛路一段西北側,Zhongzheng Dist,YouBike2.0_Linsen S. Rd & Sec 1， Ren'ai Rd Intersection,Linsen S. Rd & Section 1， Ren'ai Rd Intersection. (Northwest),1,1,2023-05-27 14:24:28,2023-05-27 14:24:51,2023-05-27 14:21:15,2023-05-27
457,500106047,YouBike2.0_中正運動中心,30,11,中正區,2023-05-27 14:22:14,25.03786,121.51985,信義路一段1號前,Zhongzheng Dist,YouBike2.0_Zhongzheng Sports Center,No. 1， Sec 1， Xinyi Rd.,18,1,2023-05-27 14:24:28,2023-05-27 14:24:51,2023-05-27 14:22:14,2023-05-27
458,500106048,YouBike2.0_信義杭州路口,47,23,中正區,2023-05-27 14:24:14,25.0357,121.5241,信義路一段21號前,Zhongzheng Dist,YouBike2.0_Sec 1， Xinyi Rd & Hangzhou S. Rd Intersection,No. 21， Sec 1， Xinyi Rd.,24,1,2023-05-27 14:24:28,2023-05-27 14:24:51,2023-05-27 14:24:14,2023-05-27
459,500106049,YouBike2.0_捷運善導寺站(3號出口),20,18,中正區,2023-05-27 14:11:04,25.04428,121.52336,林森南路1號南側,Zhongzheng Dist,YouBike2.0_MRT Shandao Temple Sta (Exit 3),No. 21， Linsen S. Rd. (South),1,1,2023-05-27 14:24:28,2023-05-27 14:24:51,2023-05-27 14:11:04,2023-05-27
460,500106050,YouBike2.0_捷運小南門站(1號出口),46,32,中正區,2023-05-27 14:24:14,25.03648,121.50951,愛國西路/延平南路(西北側),Zhongzheng Dist,YouBike2.0_MRT Xiaonanmen Sta. (Exit 1),Aiguo E. Rd. & Yanping S. Rd Intersection (Northwest),14,1,2023-05-27 14:24:28,2023-05-27 14:24:51,2023-05-27 14:24:14,2023-05-27
461,500106051,YouBike2.0_延平南路133巷口,17,12,中正區,2023-05-27 14:18:13,25.03792,121.50846,延平南路162號對側,Zhongzheng Dist,YouBike2.0_Ln. 133， Yanping S. Rd Intersection,No.162， Yanping S. Rd. (Opposite),5,1,2023-05-27 14:24:28,2023-05-27 14:24:51,2023-05-27 14:18:13,2023-05-27
462,500106052,YouBike2.0_捷運西門站(2號出口),36,8,中正區,2023-05-27 14:11:14,25.0416,121.50842,中華路一段59號旁,Zhongzheng Dist,YouBike2.0_MRT Ximen Sta (Exit 2),No. 59， Sec. 1， Zhonghua Rd.,28,1,2023-05-27 14:24:28,2023-05-27 14:24:51,2023-05-27 14:11:14,2023-05-27
463,500106053,YouBike2.0_寶慶博愛路口,27,17,中正區,2023-05-27 14:11:14,25.04129,121.5112,博愛路162號,Zhongzheng Dist,YouBike2.0_Baoqing Rd & Bo'ai Rd Intersection,No. 162， Bo'ai Rd.,9,1,2023-05-27 14:24:28,2023-05-27 14:24:51,2023-05-27 14:11:14,2023-05-27
464,500106054,YouBike2.0_法務部,27,9,中正區,2023-05-27 14:01:43,25.03705,121.51249,重慶南路一段130號旁,Zhongzheng Dist,YouBike2.0_Agency Against Corruption,No. 130， Sec. 1， Chongqing S. Rd.,18,1,2023-05-27 14:24:28,2023-05-27 14:24:51,2023-05-27 14:01:43,2023-05-27
465,500106055,YouBike2.0_臺北市立大學(博愛校區),59,36,中正區,2023-05-27 14:23:15,25.03545,121.51327,愛國西路1號(前),Zhongzheng Dist,YouBike2.0_University of Taipei Boai Campus,No. 1， Aiguo W. Rd.,23,1,2023-05-27 14:24:28,2023-05-27 14:24:51,2023-05-27 14:23:15,2023-05-27
466,500106056,YouBike2.0_國家圖書館,36,17,中正區,2023-05-27 14:07:14,25.03763,121.51709,中山南路20號前,Zhongzheng Dist,YouBike2.0_National Central Library,No. 20， Zhongshan S. Rd.,17,1,2023-05-27 14:24:28,2023-05-27 14:24:51,2023-05-27 14:07:14,2023-05-27
467,500106057,YouBike2.0_市民金山路口,30,19,中正區,2023-05-27 14:24:14,25.0459,121.53068,金山市民大道口南側,Zhongzheng Dist,YouBike2.0_Civic Blvd & Jinshan N. Rd Intersection,Jinshan N. Rd & Civic Blvd Intersection. (South),11,1,2023-05-27 14:24:28,2023-05-27 14:24:51,2023-05-27 14:24:14,2023-05-27
469,500106059,YouBike2.0_中山堂,29,20,中正區,2023-05-27 14:21:15,25.04412,121.51025,武昌街一段與延平南路口,Zhongzheng Dist,YouBike2.0_Zhongshan Hall,Sec. 1， Wuchang St & Yanping South Rd Intersection.,9,1,2023-05-27 14:24:28,2023-05-27 14:24:51,2023-05-27 14:21:15,2023-05-27
470,500106060,YouBike2.0_中華漢口街口,19,12,中正區,2023-05-27 14:22:14,25.04533,121.50944,中華路一段與漢口街一段路口,Zhongzheng Dist,YouBike2.0_Sec. 1， Zhonghua Rd & Hankou St Intersection,Sec. 1， Zhonghua Rd & Sec. 1， Hankou St Intersection,6,1,2023-05-27 14:24:28,2023-05-27 14:24:51,2023-05-27 14:22:14,2023-05-27
472,500106062,YouBike2.0_捷運臺大醫院站(4號出口),60,19,中正區,2023-05-27 14:23:15,25.04297,121.51643,常德街1號(公園路側),Zhongzheng Dist,YouBike2.0_MRT NTU Hospital Sta. (Exit 4),No. 1， Changde St. (Gongyuan Rd),39,1,2023-05-27 14:24:28,2023-05-27 14:24:51,2023-05-27 14:23:15,2023-05-27
473,500106063,YouBike2.0_寶藏巖觀音亭,23,8,中正區,2023-05-27 14:05:16,25.01027,121.5331,汀州路三段230巷23號,Zhongzheng Dist,YouBike2.0_Treasure Hill Guanyin Temple,No. 23， Ln. 230， Sec. 3， Tingzhou Rd.,15,1,2023-05-27 14:24:28,2023-05-27 14:24:51,2023-05-27 14:05:16,2023-05-27
474,500106064,YouBike2.0_師大水源路口,21,7,中正區,2023-05-27 14:13:15,25.0203,121.52302,師大路/水源路口(東南側),Zhongzheng Dist,YouBike2.0_Shida Rd. & Shuiyuan Rd. Intersection,Shida Rd. & Shuiyuan Rd. Intersection (Southeast),14,1,2023-05-27 14:24:28,2023-05-27 14:24:51,2023-05-27 14:13:15,2023-05-27
475,500106065,YouBike2.0_中山徐州路口,16,9,中正區,2023-05-27 14:21:15,25.04176,121.51866,中山南路/徐州路(東南側),Zhongzheng Dist,YouBike2.0_Zhongshan Rd. & Xuzhou Rd. Intersection,Zhongshan S. Rd. & Xuzhou Rd. (Southeast),5,1,2023-05-27 14:24:28,2023-05-27 14:24:51,2023-05-27 14:21:15,2023-05-27
476,500106066,YouBike2.0_信義連雲街口,31,8,中正區,2023-05-27 14:23:15,25.03377,121.53041,信義路二段213號前,Zhongzheng Dist,YouBike2.0_Xinyi Rd. & Lianyun St. Intersection,No. 213， Sec. 2， Sinyi Rd.,21,1,2023-05-27 14:24:28,2023-05-27 14:24:51,2023-05-27 14:23:15,2023-05-27
477,500106067,YouBike2.0_臺北轉運站,68,24,中正區,2023-05-27 14:24:14,25.04842,121.51994,市民大道一段/中山北路一段(西北側),Zhongzheng Dist,YouBike2.0_Taipei Bus Station,Sec. 1， Civic Blvd. & Sec. 1， Jhongshan N. Rd. Intersection (Northwest),42,1,2023-05-27 14:24:28,2023-05-27 14:24:51,2023-05-27 14:24:14,2023-05-27
479,500106069,YouBike2.0_捷運忠孝新生站(2號出口),32,4,中正區,2023-05-27 14:03:15,25.04235,121.53222,忠孝東路二段132號(東側),Zhongzheng Dist,YouBike2.0_MRT Zhongxiao Xinsheng Sta.(Exit.2),No. 132， Sec. 2， Jhongsiao E. Rd. (East),27,1,2023-05-27 14:24:28,2023-05-27 14:24:51,2023-05-27 14:03:15,2023-05-27
480,500106070,YouBike2.0_光華商場,28,19,中正區,2023-05-27 14:24:14,25.04478,121.53274,新生北路一段/市民大道三段口(西側),Zhongzheng Dist,YouBike2.0_Guang Hua Computer Market,Sec. 1， Sinsheng N. Rd. & Sec. 3， Civic Blvd. Intersection (West),8,1,2023-05-27 14:24:28,2023-05-27 14:24:51,2023-05-27 14:24:14,2023-05-27
481,500106071,YouBike2.0_中山青島路口,30,14,中正區,2023-05-27 14:10:20,25.04503,121.51968,中山南路/青島東路口(東北側),Zhongzheng Dist,YouBike2.0_Zhongshan & Qingdao Intersection,Zhongshan S. Rd & Qingdao E. Rd. Intersection (Northeast),15,1,2023-05-27 14:24:28,2023-05-27 14:24:51,2023-05-27 14:10:20,2023-05-27
486,500106077,YouBike2.0_林森徐州路口,16,16,中正區,2023-05-27 14:19:04,25.04094,121.52215,林森南路/徐州路口(西南側),Zhongzheng Dist,YouBike2.0_Linsen Rd. & Xuzhou Rd. Intersection,Linsen S. Rd. & Xuzhou Rd. Intersection (Northwest),0,1,2023-05-27 14:24:28,2023-05-27 14:24:51,2023-05-27 14:19:04,2023-05-27
487,500106078,YouBike2.0_徐州杭州路口,19,6,中正區,2023-05-27 14:23:15,25.04023,121.52565,徐州路/杭州南路一段口(西北側),Zhongzheng Dist,YouBike2.0_Xuzhou Rd. Hangzhou Rd. Intersection,Xuzhou Rd. Sec. 1， Hangzhou S. Rd. Intersection (Northwest),13,1,2023-05-27 14:24:28,2023-05-27 14:24:51,2023-05-27 14:23:15,2023-05-27
488,500106079,YouBike2.0_捷運中正紀念堂站(6號出口),17,8,中正區,2023-05-27 14:14:14,25.03615,121.5166,捷運中正紀念堂站(6號出口)北側,Zhongzheng Dist,YouBike2.0_MRT C.K.S Memorial Hall Sta.(Exit 6),MRT C.K.S Memorial Hall Sta.(Exit.6) (North),8,1,2023-05-27 14:24:28,2023-05-27 14:24:51,2023-05-27 14:14:14,2023-05-27
491,500106084,YouBike2.0_捷運西門站(5號出口),30,18,中正區,2023-05-27 14:24:14,25.04244,121.50864,捷運西門站(5號出口)南側,Zhongzheng Dist,YouBike2.0_MRT Ximen Sta. (Exit 5),MRT Ximen Sta. (Exit 5) (South),11,1,2023-05-27 14:24:28,2023-05-27 14:24:51,2023-05-27 14:24:14,2023-05-27
493,500106086,YouBike2.0_臺北市第一女子高級中學,17,6,中正區,2023-05-27 14:21:15,25.0385,121.51288,重慶南路一段165號旁,Zhongzheng Dist,YouBike2.0_Taipei First Girls High School,No. 165， Sec. 1， Chongqing S. Rd.,10,1,2023-05-27 14:24:28,2023-05-27 14:24:51,2023-05-27 14:21:15,2023-05-27
496,500106089,YouBike2.0_羅斯福寧波東街口,20,7,中正區,2023-05-27 14:23:15,25.03145,121.51941,羅斯福路一段/寧波東街(東南側),Zhongzheng Dist,YouBike2.0_Roosevelt Rd. & Ningbo E. St. Intersection,Sec. 1， Roosevelt Rd. & Ningbo E. St. Intersection (Southeast),13,1,2023-05-27 14:24:28,2023-05-27 14:24:51,2023-05-27 14:23:15,2023-05-27
497,500106090,YouBike2.0_自來水園區,30,23,中正區,2023-05-27 14:22:14,25.01328,121.53004,中正區思源街16號對面人行道,Zhongzheng Dist,YouBike2.0_Taipei Water Park,No. 16， Siyuan St. (Opposite),7,1,2023-05-27 14:24:28,2023-05-27 14:24:51,2023-05-27 14:22:14,2023-05-27
498,500106091,YouBike2.0_仁愛林森路口,20,14,中正區,2023-05-27 14:23:15,25.03895,121.52233,仁愛路一段路口/林森南路(東北側),Zhongzheng Dist,YouBike2.0_Ren'ai Rd. & Linsen Rd. Intersection,Sec. 1， Ren'ai Rd. & Linsen S. Rd. Intersection (Northeast),4,1,2023-05-27 14:24:28,2023-05-27 14:24:51,2023-05-27 14:23:15,2023-05-27
499,500106092,YouBike2.0_捷運西門站(3號出口),36,10,中正區,2023-05-27 14:23:15,25.04178,121.50869,中華路一段/寶慶路(東南側),Zhongzheng Dist,YouBike2.0_MRT Ximen Sta. (Exit 3),Sec. 1， Zhonghua Rd. & Baoqing Rd. Intersection (Southeast),26,1,2023-05-27 14:24:28,2023-05-27 14:24:51,2023-05-27 14:23:15,2023-05-27
502,500106095,YouBike2.0_仁愛杭州路口,15,4,中正區,2023-05-27 14:23:15,25.03846,121.52497,仁愛路一段59號旁,Zhongzheng Dist,YouBike2.0_Ren'ai Rd. & Hangzhou Rd. Intersection,No. 59， Sec. 1， Ren'ai Rd.,9,1,2023-05-27 14:24:28,2023-05-27 14:24:51,2023-05-27 14:23:15,2023-05-27
503,500106096,YouBike2.0_龍興里活動中心,21,9,中正區,2023-05-27 14:22:14,25.02815,121.51108,三元街131號旁,Zhongzheng Dist,YouBike2.0_Longxing Community Center,No. 131， Sanyuan St.,12,1,2023-05-27 14:24:28,2023-05-27 14:24:51,2023-05-27 14:22:14,2023-05-27
504,500106097,YouBike2.0_植物園,22,17,中正區,2023-05-27 13:25:15,25.0299,121.51033,和平西路二段100號前,Zhongzheng Dist,YouBike2.0_Taipei Botanical Garden,No. 100， Sec. 2， Heping W. Rd.,4,1,2023-05-27 14:24:28,2023-05-27 14:24:51,2023-05-27 13:25:15,2023-05-27
505,500106098,YouBike2.0_郵政博物館,20,10,中正區,2023-05-27 14:24:14,25.03158,121.51464,重慶南路二段45號前方(郵政博物館前),Zhongzheng Dist,YouBike2.0_Postal Museum,No. 45， Sec. 2， Chongqing S. Rd.,10,1,2023-05-27 14:24:28,2023-05-27 14:24:51,2023-05-27 14:24:14,2023-05-27
507,500106100,YouBike2.0_北平紹興路口,15,10,中正區,2023-05-27 13:48:15,25.04597,121.52579,北平東路30號對側人行道,Zhongzheng Dist,YouBike2.0_Beiping Rd. & Shaoxing St. Intersection,No. 30， Beiping E. Rd. (Opposite),5,1,2023-05-27 14:24:28,2023-05-27 14:24:51,2023-05-27 13:48:15,2023-05-27
509,500106102,YouBike2.0_捷運忠孝新生站(1號出口),19,5,中正區,2023-05-27 14:23:15,25.04272,121.53207,捷運忠孝新生站(1號出口)後方,Zhongzheng Dist,YouBike2.0_MRT Zhongxiao Xinsheng Sta.(Exit.1),MRT Zhongxiao Xinsheng Sta.(Exit.1),14,1,2023-05-27 14:24:28,2023-05-27 14:24:51,2023-05-27 14:23:15,2023-05-27
511,500106104,YouBike2.0_捷運臺大醫院站(1號出口),19,4,中正區,2023-05-27 14:17:34,25.04074,121.51586,公園路/常德街口(西側),Zhongzheng Dist,YouBike2.0_MRT NTU Hospital Sta. (Exit. 1),Gongyuan Rd. & Changde St. Intersection (West),14,1,2023-05-27 14:24:28,2023-05-27 14:24:51,2023-05-27 14:17:34,2023-05-27
512,500106105,YouBike2.0_臺大醫院兒童醫院,22,21,中正區,2023-05-27 14:23:04,25.04461,121.5188,中山南路8號(青島西路側),Zhongzheng Dist,YouBike2.0_National Taiwan University Children's Hospital,No. 8， Zhongshan S. Rd. (Qingdao W. Rd.),0,1,2023-05-27 14:24:28,2023-05-27 14:24:51,2023-05-27 14:23:04,2023-05-27
515,500106108,YouBike2.0_中華南海路口,15,7,中正區,2023-05-27 14:23:15,25.02703,121.50686,中華路二段343號前,Zhongzheng Dist,YouBike2.0_Zhonghua Rd. & Nanhai Rd. Intersection,No. 343， Sec. 2， Zhonghua Rd.,8,1,2023-05-27 14:24:28,2023-05-27 14:24:51,2023-05-27 14:23:15,2023-05-27
516,500106109,YouBike2.0_立法院台北會館,15,6,中正區,2023-05-27 14:11:14,25.03371,121.51068,博愛路217號旁,Zhongzheng Dist,YouBike2.0_Taipei Association,No. 217， Bo'ai Rd.,8,1,2023-05-27 14:24:28,2023-05-27 14:24:51,2023-05-27 14:11:14,2023-05-27
517,500106110,YouBike2.0_捷運善導寺站(3號出口)(忠孝東路側),17,5,中正區,2023-05-27 14:24:14,25.04467,121.52357,忠孝東路一段/林森南路口,Zhongzheng Dist,YouBike2.0_MRT Shandao Temple Sta. (Exit 3) (Zhongxiao E. Rd.),Sec. 1， Zhongxiao E. Rd. & Linsen S. Rd. Intersection,11,1,2023-05-27 14:24:28,2023-05-27 14:24:51,2023-05-27 14:24:14,2023-05-27
518,500106111,YouBike2.0_國家音樂廳,22,22,中正區,2023-05-27 14:21:04,25.03788,121.51904,信義路一段(國家音樂廳西北側),Zhongzheng Dist,YouBike2.0_National Concert Hall,Sec. 1， Xinyi Rd. (National Concert Hall Northwest),0,1,2023-05-27 14:24:28,2023-05-27 14:24:51,2023-05-27 14:21:04,2023-05-27
519,500106112,YouBike2.0_忠孝西重慶南路口,33,23,中正區,2023-05-27 14:24:14,25.04724,121.51272,忠孝西路一段100號前,Zhongzheng Dist,YouBike2.0_Zhongxiao W. Rd. & Chongqing S. Rd. Intersection,No. 100， Sec. 1， Zhongxiao W. Rd.,10,1,2023-05-27 14:24:28,2023-05-27 14:24:51,2023-05-27 14:24:14,2023-05-27
520,500106113,YouBike2.0_濟南路二段8巷口,15,5,中正區,2023-05-27 14:22:14,25.04127,121.52697,濟南路二段6-1號對側,Zhongzheng Dist,YouBike2.0_Ln. 8， Sec. 2， Jinan Rd.,No. 6-1， Ln. 8， Sec. 2， Jinan Rd. (Opposite),10,1,2023-05-27 14:24:28,2023-05-27 14:24:51,2023-05-27 14:22:14,2023-05-27
524,500106117,YouBike2.0_文光公園,17,11,中正區,2023-05-27 14:19:14,25.03898,121.53058,仁愛路二段65巷4號對側,Zhongzheng Dist,YouBike2.0_Wenguang Park,No. 4， Ln. 65， Sec. 2， Ren'ai Rd. (Opposite),6,1,2023-05-27 14:24:28,2023-05-27 14:24:51,2023-05-27 14:19:14,2023-05-27
528,500107001,YouBike2.0_通北街65巷口,16,9,中山區,2023-05-27 14:24:14,25.08251,121.54004,通北街/通北街65巷口(東北側),Zhongshan Dist,YouBike2.0_Ln. 65， Tongbei St.,Tongbei /Ln. 65， Tongbei St. Intersection,7,1,2023-05-27 14:24:28,2023-05-27 14:24:51,2023-05-27 14:24:14,2023-05-27
529,500107002,YouBike2.0_圓山風景區,15,12,中山區,2023-05-27 13:59:15,25.07805,121.5295,北安路/北安路77巷口(西北側),Zhongshan Dist,YouBike2.0_Yuanshan Scenic Area,Bei'an Rd./Ln. 77， Bei'an Rd. Intersection,2,1,2023-05-27 14:24:28,2023-05-27 14:24:51,2023-05-27 13:59:15,2023-05-27
534,500107007,YouBike2.0_北安大直街口,15,11,中山區,2023-05-27 14:17:34,25.08474,121.54968,北安路676號前人行道,Zhongshan Dist,YouBike2.0_Bei'an & Dajhih St. Intersection,No. 676， Bei'an Rd.,4,1,2023-05-27 14:24:28,2023-05-27 14:24:51,2023-05-27 14:17:34,2023-05-27
535,500107008,YouBike2.0_捷運劍南路站(2號出口),86,36,中山區,2023-05-27 14:24:14,25.08401,121.55535,敬業三路11號(植福路側對面),Zhongshan Dist,YouBike2.0_MRT Jiannan Rd. Station (Exit 2),No. 11， Jingye 3rd Rd. (Opposite),50,1,2023-05-27 14:24:28,2023-05-27 14:24:51,2023-05-27 14:24:14,2023-05-27
538,500107011,YouBike2.0_捷運大直站(3號出口),34,12,中山區,2023-05-27 14:23:15,25.07923,121.5473,北安路536號(旁),Zhongshan Dist,YouBike2.0_Dazhi Station (Exit 3),No. 536， Bei'an Rd.,22,1,2023-05-27 14:24:28,2023-05-27 14:24:51,2023-05-27 14:23:15,2023-05-27
539,500107012,YouBike2.0_復興市民路口,45,8,中山區,2023-05-27 14:23:15,25.04585,121.54375,復興南路一段36-9號前人行道,Zhongshan Dist,YouBike2.0_Fuxing Rd. & Civic Blvd. Intersection,No. 36-9， Sec. 1， Fuxing S. Rd.,37,1,2023-05-27 14:24:28,2023-05-27 14:24:51,2023-05-27 14:23:15,2023-05-27
540,500107013,YouBike2.0_南京遼寧街口,34,16,中山區,2023-05-27 14:23:15,25.05176,121.54217,南京東路三段189號(對面),Zhongshan Dist,YouBike2.0_Nanjing Rd. & Liaoning St. Intersection,No. 189， Sec. 3， Nanjing E. Rd. (Opposite),17,1,2023-05-27 14:24:28,2023-05-27 14:24:51,2023-05-27 14:23:15,2023-05-27
541,500107014,YouBike2.0_伊通長安路口,21,19,中山區,2023-05-27 14:23:15,25.04833,121.53469,伊通街/長安東路二段(西南側路側),Zhongshan Dist,YouBike2.0_Yitong St. & Chang'an Rd. Intersection,Yitong St. & Sec. 2， Chang'an E Rd. Intersection (Southwest),2,1,2023-05-27 14:24:28,2023-05-27 14:24:51,2023-05-27 14:23:15,2023-05-27
543,500107016,YouBike2.0_市民林森路口,29,4,中山區,2023-05-27 14:23:15,25.04796,121.52439,市民大道二段/林森北路(東北側),Zhongshan Dist,YouBike2.0_Civic Blvd. & Linsen Rd. Intersection,Sec. 2， Civic Blvd. & Linsen N Rd. Intersection (NorthEast),23,1,2023-05-27 14:24:28,2023-05-27 14:24:51,2023-05-27 14:23:15,2023-05-27
544,500107017,YouBike2.0_南京新生路口,30,6,中山區,2023-05-27 14:19:14,25.05194,121.52766,新生北路一段/南京東路一段口(橋墩下方),Zhongshan Dist,YouBike2.0_Nanjing Rd. & Xinsheng Rd. Intersection,Sec.1， Xinsheng N. Rd. & Sec. 1， Nanjing E. Rd. Intersection (Under Bridge),23,1,2023-05-27 14:24:28,2023-05-27 14:24:51,2023-05-27 14:19:14,2023-05-27
548,500107021,YouBike2.0_第二果菜批發市場,28,4,中山區,2023-05-27 14:21:15,25.06642,121.53735,民族東路410巷2弄18號(東側),Zhongshan Dist,YouBike2.0_The Second Wholesale Fruit and Vegetable Market,No. 18， Aly. 2， Ln. 410， Minzu E Rd. (East),22,1,2023-05-27 14:24:28,2023-05-27 14:24:51,2023-05-27 14:21:15,2023-05-27
550,500107023,YouBike2.0_興安華城,62,12,中山區,2023-05-27 14:21:15,25.05606,121.54175,興安街53-4號對側,Zhongshan Dist,YouBike2.0_Xing An Hua Cheng,No. 53-4， Xing'an St. (Opposite),47,1,2023-05-27 14:24:28,2023-05-27 14:24:51,2023-05-27 14:21:15,2023-05-27
551,500107024,YouBike2.0_捷運中山國中站,62,46,中山區,2023-05-27 14:24:14,25.06106,121.54406,復興北路386號南側,Zhongshan Dist,YouBike2.0_MRT Zhongshan Junior High School Sta.,No. 386， Fuxing N Rd. (South),13,1,2023-05-27 14:24:28,2023-05-27 14:24:51,2023-05-27 14:24:14,2023-05-27
553,500107026,YouBike2.0_建國長春路口,16,8,中山區,2023-05-27 14:11:14,25.05469,121.53686,建國北路/長春路口(南側),Zhongshan Dist,YouBike2.0_Jianguo Rd. & Changchun Rd. Intersection,Jianguo N Rd. & Changchun Rd. Intersection (South),5,1,2023-05-27 14:24:28,2023-05-27 14:24:51,2023-05-27 14:11:14,2023-05-27
554,500107027,YouBike2.0_南京建國路口,42,20,中山區,2023-05-27 14:23:15,25.05214,121.5368,南京東路二段/建國北路二段(北側),Zhongshan Dist,YouBike2.0_Nanjing E Rd. & Jianguo Rd. Intersection,Sec. 2， Nanjing E Rd. & Sec. 2， Jianguo N Rd. Intersection (North),21,1,2023-05-27 14:24:28,2023-05-27 14:24:51,2023-05-27 14:23:15,2023-05-27
555,500107028,YouBike2.0_捷運松江南京站(7號出口),75,62,中山區,2023-05-27 14:24:14,25.05246,121.5332,松江路119號前,Zhongshan Dist,YouBike2.0_MRT Songjiang Nanjing Sta. (Exit 7),No. 119， Songjiang Rd.,7,1,2023-05-27 14:24:28,2023-05-27 14:24:51,2023-05-27 14:24:14,2023-05-27
559,500107032,YouBike2.0_建國北路一段17巷,45,4,中山區,2023-05-27 14:10:20,25.04699,121.53735,建國北路一段17巷/八德路二段137巷口,Zhongshan Dist,YouBike2.0_Ln. 17， Sec. 1， Jianguo N. Rd.,Ln. 17， Sec. 1， Jianguo N. Rd. & Ln. 137， Sec. 2， Bade Rd. Intersection,41,1,2023-05-27 14:24:28,2023-05-27 14:24:51,2023-05-27 14:10:20,2023-05-27
561,500107034,YouBike2.0_民權龍江路口,32,13,中山區,2023-05-27 14:15:15,25.06225,121.54107,民權東路三段與龍江路口東南側,Zhongshan Dist,YouBike2.0_Minquan E. Rd. & Long Jiang Rd. Intersection,Sec. 3， Minquan E. Rd. & Long Jiang Rd. Intersection (Southeast),15,1,2023-05-27 14:24:28,2023-05-27 14:24:51,2023-05-27 14:15:15,2023-05-27
562,500107035,YouBike2.0_捷運中山國小站(2號出口),59,16,中山區,2023-05-27 14:15:15,25.06246,121.52705,捷運中山國小站(2號出口)後方,Zhongshan Dist,YouBike2.0_MRT Zhongshan Elementary School Sta. (Exit 2),MRT Zhongshan Elementary School Sta. (Exit 2) (Back),42,1,2023-05-27 14:24:28,2023-05-27 14:24:51,2023-05-27 14:15:15,2023-05-27
563,500107036,YouBike2.0_捷運行天宮站(3號出口),42,7,中山區,2023-05-27 14:19:14,25.05992,121.5333,松江路261號前,Zhongshan Dist,YouBike2.0_MRT Xingtian Temple Sta. (Exit 3),No. 261， Songjiang Rd.,34,1,2023-05-27 14:24:28,2023-05-27 14:24:51,2023-05-27 14:19:14,2023-05-27
569,500107042,YouBike2.0_臺北市立美術館,24,24,中山區,2023-05-27 14:16:04,25.06987,121.52291,花博公園5號出入口旁,Zhongshan Dist,YouBike2.0_Taipei Fine Arts Museum,Taipei EXPO Park Yuanshan Gate 5,0,1,2023-05-27 14:24:28,2023-05-27 14:24:51,2023-05-27 14:16:04,2023-05-27
570,500107043,YouBike2.0_中山民族路口,16,10,中山區,2023-05-27 14:24:14,25.06816,121.52265,中山北路三段54號前,Zhongshan Dist,YouBike2.0_Zhongshan Rd. & Minzu Rd. Intersection,No. 54， Sec. 3， Zhongshan N. Rd.,6,1,2023-05-27 14:24:28,2023-05-27 14:24:51,2023-05-27 14:24:14,2023-05-27
571,500107044,YouBike2.0_新生高架停車場(林森北路107巷口),14,4,中山區,2023-05-27 14:01:43,25.04983,121.52853,新生北路一段與林森北路107巷口(新生高架橋下),Zhongshan Dist,YouBike2.0_Xinsheng Elevated Parking Lot (Ln. 107， Linsen N. Rd.),Sec. 1， Xinsheng N. Rd. & Ln. 107， Linsen N. Rd. (Under Xinsheng Elevated Bridge),9,1,2023-05-27 14:24:28,2023-05-27 14:24:51,2023-05-27 14:01:43,2023-05-27
572,500107045,YouBike2.0_南京林森路口(東南側),10,6,中山區,2023-05-27 14:21:15,25.05201,121.52556,南京東路一段86號前,Zhongshan Dist,YouBike2.0_Nanjing E. Rd.,No. 86， Sec. 1， Nanjing E. Rd.,2,1,2023-05-27 14:24:28,2023-05-27 14:24:51,2023-05-27 14:21:15,2023-05-27
576,500107049,YouBike2.0_五常國中,16,7,中山區,2023-05-27 14:22:14,25.06505,121.54366,復興北路488巷2弄5號對側,Zhongshan Dist,YouBike2.0_Wuchang Junior High School,No. 5， Aly. 2， Ln. 488， Fuxing N. Rd. (Opposite),8,1,2023-05-27 14:24:28,2023-05-27 14:24:51,2023-05-27 14:22:14,2023-05-27
578,500107051,YouBike2.0_民權建國路口,34,10,中山區,2023-05-27 14:21:15,25.06251,121.53765,民權東路三段/建國北路三段口(東北側),Zhongshan Dist,YouBike2.0_Minquan Rd. & Jianguo N. Rd. Intersection,Sec. 3， Minquan E. Rd. & Sec. 3， Jianguo N. Rd. Intersection (Northeast),24,1,2023-05-27 14:24:28,2023-05-27 14:24:51,2023-05-27 14:21:15,2023-05-27
579,500107052,YouBike2.0_松江路431巷口,15,5,中山區,2023-05-27 14:22:14,25.06585,121.53338,松江路433號前,Zhongshan Dist,YouBike2.0_Ln. 431， Songshan Rd. Intersection,No. 433， Songjiang Rd.,10,1,2023-05-27 14:24:28,2023-05-27 14:24:51,2023-05-27 14:22:14,2023-05-27
582,500107055,YouBike2.0_民族松江路口,17,8,中山區,2023-05-27 13:49:15,25.06833,121.5328,民族東路與松江路口西北側,Zhongshan Dist,YouBike2.0_Minzu Rd. & Songjiang Rd. Intersection,Minzu E. Rd. & Songjiang Rd. Intersection (Northwest),9,1,2023-05-27 14:24:28,2023-05-27 14:24:51,2023-05-27 13:49:15,2023-05-27
586,500107059,YouBike2.0_捷運中山站(2號出口),33,31,中山區,2023-05-27 14:24:04,25.05228,121.52176,南京西路4號前,Zhongshan Dist,YouBike2.0_MRT Zhongshan Sta. (Exit 2),No. 4， Nanjing W. Rd.,0,1,2023-05-27 14:24:28,2023-05-27 14:24:51,2023-05-27 14:24:04,2023-05-27
590,500107063,YouBike2.0_林森長春路口,28,19,中山區,2023-05-27 14:22:15,25.05497,121.52536,長春路29號前,Zhongshan Dist,YouBike2.0_Linsen & Changchun Intersection,No. 29， Changchun Rd.,8,1,2023-05-27 14:24:28,2023-05-27 14:24:51,2023-05-27 14:22:15,2023-05-27
593,500107066,YouBike2.0_建國長安路口,20,12,中山區,2023-05-27 13:58:15,25.04836,121.53669,建國北路一段與長安東路二段口北側,Zhongshan Dist,YouBike2.0_Jianguo & Chang'an Intersection,Sec. 1， Jianguo N. Rd. & Sec. 2， Chang'an E. Rd. Intersection (North),6,1,2023-05-27 14:24:28,2023-05-27 14:24:51,2023-05-27 13:58:15,2023-05-27
596,500107069,YouBike2.0_中山農安街口,17,4,中山區,2023-05-27 14:24:14,25.0651,121.5224,中山北路三段25號前,Zhongshan Dist,YouBike2.0_Zhongshan Rd. & Nong'an St. Intersection,No. 25， Sec. 3， Zhongshan N. Rd.,12,1,2023-05-27 14:24:28,2023-05-27 14:24:51,2023-05-27 14:24:14,2023-05-27
600,500107074,YouBike2.0_中原民生路口,15,6,中山區,2023-05-27 14:04:19,25.05808,121.52887,民生東路二段33號旁,Zhongshan Dist,YouBike2.0_Zhongyuan St. & Minsheng Rd. Intersection,No. 33， Sec. 2， Minsheng E. Rd.,9,1,2023-05-27 14:24:28,2023-05-27 14:24:51,2023-05-27 14:04:19,2023-05-27
601,500107075,YouBike2.0_國立臺北大學(臺北校區),38,5,中山區,2023-05-27 14:23:15,25.05794,121.54244,民生東路三段67號前,Zhongshan Dist,YouBike2.0_National Taipei University(Taipei Canpus),No. 67， Sec. 3， Minsheng E. Rd.,32,1,2023-05-27 14:24:28,2023-05-27 14:24:51,2023-05-27 14:23:15,2023-05-27
603,500107077,YouBike2.0_中山北路二段59巷口,12,7,中山區,2023-05-27 14:10:20,25.05606,121.5229,中山北路二段59之3號前,Zhongshan Dist,YouBike2.0_Ln. 59， Sec. 2， Zhongshan N. Rd.,No. 59-3， Sec. 2， Zhongshan N. Rd.,3,1,2023-05-27 14:24:28,2023-05-27 14:24:51,2023-05-27 14:10:20,2023-05-27
604,500107078,YouBike2.0_永盛公園(民生東路一段23巷),24,5,中山區,2023-05-27 14:23:15,25.05873,121.52488,民生東路一段23巷/民生東路一段27巷口,Zhongshan Dist,YouBike2.0_Yongsheng Park(Ln. 23， Sec. 1， Minsheng E. Rd.),Ln. 23， Sec. 1， Minsheng E. Rd. & Ln. 27， Sec. 1， Minsheng E. Rd. Intersection,19,1,2023-05-27 14:24:28,2023-05-27 14:24:51,2023-05-27 14:23:15,2023-05-27
606,500107080,YouBike2.0_濱江街199巷口,15,4,中山區,2023-05-27 14:23:15,25.0734,121.53985,濱江街199巷(八號疏散門前),Zhongshan Dist,YouBike2.0_Ln. 199， Binjiang St.,Ln. 199， Binjiang St.,11,1,2023-05-27 14:24:28,2023-05-27 14:24:51,2023-05-27 14:23:15,2023-05-27
608,500107082,YouBike2.0_濱江果菜市場,22,9,中山區,2023-05-27 14:11:14,25.06807,121.53673,民族東路336號前,Zhongshan Dist,YouBike2.0_Binjiang Fruit and Vegetable Wholesale Market,No. 336， Minzu E. Rd.,11,1,2023-05-27 14:24:28,2023-05-27 14:24:51,2023-05-27 14:11:14,2023-05-27
612,500107086,YouBike2.0_植福樂群路口,10,7,中山區,2023-05-27 14:17:34,25.08303,121.5604,植福路/樂群三路(西北側),Zhongshan Dist,YouBike2.0_Zhifu Rd. & Lequn Rd. Intersection,Zhifu Rd. & Lequn 3rd Rd. Intersection (Northwest),3,1,2023-05-27 14:24:28,2023-05-27 14:24:51,2023-05-27 14:17:34,2023-05-27
613,500107087,YouBike2.0_新興公園,20,5,中山區,2023-05-27 14:23:15,25.06157,121.52439,錦州街13巷/中山北路二段137巷口(東南側),Zhongshan Dist,YouBike2.0_Xinxing Park,Ln. 13， Jinzhou St. & Ln. 137， Sec. 2， Zhongshan N. Rd. Intersection (Southeast),15,1,2023-05-27 14:24:28,2023-05-27 14:24:51,2023-05-27 14:23:15,2023-05-27
615,500107089,YouBike2.0_南京龍江路口,15,5,中山區,2023-05-27 14:14:14,25.05205,121.54012,南京東路三段121號前,Zhongshan Dist,YouBike2.0_Nanjing Rd. & Longjiang Rd. Intersection,No. 121， Sec. 3， Nanjing E. Rd.,10,1,2023-05-27 14:24:28,2023-05-27 14:24:51,2023-05-27 14:14:14,2023-05-27
616,500107090,YouBike2.0_撫順街41巷(崇德宮前),19,6,中山區,2023-05-27 14:21:15,25.06389,121.51916,撫順街41巷1-7號對側,Zhongshan Dist,YouBike2.0_Ln. 41， Fushun St. (Chongde Temple),No. 1-7， Ln. 41， Fushun St.,12,1,2023-05-27 14:24:28,2023-05-27 14:24:51,2023-05-27 14:21:15,2023-05-27
617,500107091,YouBike2.0_臺北市立圖書館大直分館,20,8,中山區,2023-05-27 13:57:15,25.08152,121.54646,大直街28號對側,Zhongshan Dist,YouBike2.0_Taipei Public Library Dazhi Branch,No. 28， Dazhi St. (Opposite),12,1,2023-05-27 14:24:28,2023-05-27 14:24:51,2023-05-27 13:57:15,2023-05-27
618,500107092,YouBike2.0_捷運大直站(1號出口),27,8,中山區,2023-05-27 14:21:15,25.0801,121.54708,北安路535之2號旁,Zhongshan Dist,YouBike2.0_MRT Dazhi Sta. (Exit 1),No. 535-2， Bei'an Rd.,18,1,2023-05-27 14:24:28,2023-05-27 14:24:51,2023-05-27 14:21:15,2023-05-27
619,500107093,YouBike2.0_捷運松江南京站(4號出口),32,6,中山區,2023-05-27 14:21:15,25.0512,121.53312,松江路95-1至109號前方,Zhongshan Dist,YouBike2.0_MRT Songjiang Nanjing Sta. (Exit 4),No.109， Songjiang Rd.,26,1,2023-05-27 14:24:28,2023-05-27 14:24:51,2023-05-27 14:21:15,2023-05-27
623,500107098,YouBike2.0_松江路132巷口,14,12,中山區,2023-05-27 14:07:14,25.05277,121.53013,吉林路100號對側,Zhongshan Dist,YouBike2.0_Ln. 132， Songjiang Rd.,No. 100， Jilin Rd. (Opposite),2,1,2023-05-27 14:24:28,2023-05-27 14:24:51,2023-05-27 14:07:14,2023-05-27
626,500107101,YouBike2.0_捷運松江南京站(8號出口),20,11,中山區,2023-05-27 14:17:34,25.05215,121.53276,南京東路二段101號前,Zhongshan Dist,YouBike2.0_MRT Songjiang Nanjing Sta. (Exit 8),No. 101， Sec. 2， Nanjing E. Rd.,9,1,2023-05-27 14:24:28,2023-05-27 14:24:51,2023-05-27 14:17:34,2023-05-27
629,500107104,YouBike2.0_經國七海文化園區,15,8,中山區,2023-05-27 14:16:16,25.07802,121.53511,北安路301號前,Zhongshan Dist,YouBike2.0_Ching-kuo Chi-Hai Culture Park,No. 301， Bei'an Rd.,7,1,2023-05-27 14:24:28,2023-05-27 14:24:51,2023-05-27 14:16:16,2023-05-27
630,500107105,YouBike2.0_民族玉門街口,20,16,中山區,2023-05-27 14:15:15,25.06873,121.52003,民族西路口與玉門街口東北側,Zhongshan Dist,YouBike2.0_Minzu Rd. & Yumen St. Intersection,Minzu W. Rd. & Yumen St. Intersection (Northeast),4,1,2023-05-27 14:24:28,2023-05-27 14:24:51,2023-05-27 14:15:15,2023-05-27
632,500107107,YouBike2.0_稻江高級護理家事職業學校,14,4,中山區,2023-05-27 14:23:15,25.06532,121.52848,農安街77巷與農安街77巷1弄口,Zhongshan Dist,YouBike2.0_Daojiang Senior High School of Nursing and Home Economics,Ln. 77， Nong'an St. & Aly. 1， Ln. 77， Nong'an St. Intersection,9,1,2023-05-27 14:24:28,2023-05-27 14:24:51,2023-05-27 14:23:15,2023-05-27
633,500107108,YouBike2.0_捷運大直站(3號出口)_1,18,9,中山區,2023-05-27 14:22:15,25.07934,121.54671,北安路458巷41弄52之1號前,Zhongshan Dist,YouBike2.0_MRT Dazhi Sta.(Exit 3)_1,No. 52-1， Aly. 41， Ln. 458， Bei'an Rd.,9,1,2023-05-27 14:24:28,2023-05-27 14:24:51,2023-05-27 14:22:15,2023-05-27
634,500107109,YouBike2.0_樂群二明水路口_1,20,5,中山區,2023-05-27 14:23:15,25.07983,121.55236,樂群二路 / 明水路口(東側),Zhongshan Dist,YouBike2.0_Lequn 2nd Rd. & Mingshui Rd. Intersection,Lequn 2nd Rd. & Mingshui Rd. Intersection (East),15,1,2023-05-27 14:24:28,2023-05-27 14:24:51,2023-05-27 14:23:15,2023-05-27
636,500107111,YouBike2.0_長春龍江路口,24,10,中山區,2023-05-27 14:18:13,25.05473,121.54026,長春路與龍江路口西北側,Zhongshan Dist,YouBike2.0_Changchun Rd. & Longjiang Rd. Intersection,Changchun Rd. & Longjiang Rd. Intersection (Northwest),14,1,2023-05-27 14:24:28,2023-05-27 14:24:51,2023-05-27 14:18:13,2023-05-27
638,500107113,YouBike2.0_建國長春路口(北側),20,4,中山區,2023-05-27 14:23:15,25.05476,121.53693,建國北路/長春路口(北側),Zhongshan Dist,YouBike2.0_Jianguo Rd. & Changchun Rd. Intersection,Jianguo N. Rd. & Changchun Rd. Intersection (North),14,1,2023-05-27 14:24:28,2023-05-27 14:24:51,2023-05-27 14:23:15,2023-05-27
640,500107115,YouBike2.0_臺北市立美術館_1,18,15,中山區,2023-05-27 14:21:04,25.07063,121.52327,中山北路三段(花博流行館前),Zhongshan Dist,YouBike2.0_Taipei Fine Arts Museum_1,Sec. 3， Zhongshan N. Rd. (Pavilion of New Fashion),3,1,2023-05-27 14:24:28,2023-05-27 14:24:51,2023-05-27 14:21:04,2023-05-27
641,500107116,YouBike2.0_劍潭社區_1,18,6,中山區,2023-05-27 13:15:15,25.08476,121.53789,通北街143號前,Zhongshan Dist,YouBike2.0_Jiantan Community_1,No. 143， Tongbei St.,12,1,2023-05-27 14:24:28,2023-05-27 14:24:51,2023-05-27 13:15:15,2023-05-27
643,500107118,YouBike2.0_林森公園,25,13,中山區,2023-05-27 14:21:15,25.05223,121.52581,林森北路/南京東路一段,Zhongshan Dist,YouBike2.0_Linsen Park,Linsen N. Rd. ＆ Sec. 1， Nanjing E. Rd. Intersection,10,1,2023-05-27 14:24:28,2023-05-27 14:24:51,2023-05-27 14:21:15,2023-05-27
647,500107122,YouBike2.0_捷運南京復興站(1號出口),21,14,中山區,2023-05-27 14:23:15,25.05253,121.54256,捷運南京復興站(1號出口)後方(遼寧街155巷),Zhongshan Dist,YouBike2.0_MRT Nanjing Fuxing Sta. (Exit.1),MRT Nanjing Fuxing Sta.(Exit.1) (Ln. 155， Liaoning St.),5,1,2023-05-27 14:24:28,2023-05-27 14:24:51,2023-05-27 14:23:15,2023-05-27
649,500107124,YouBike2.0_龍江朱崙街口,14,4,中山區,2023-05-27 14:12:15,25.05004,121.54043,龍江路/朱崙街口西北側,Zhongshan Dist,YouBike2.0_Longjiang Rd. & Zhulun St. Intersection,Longjiang Rd. & Zhulun St. Intersection (Northwest),10,1,2023-05-27 14:24:28,2023-05-27 14:24:51,2023-05-27 14:12:15,2023-05-27
650,500107125,YouBike2.0_大直街94巷,15,5,中山區,2023-05-27 13:30:39,25.08431,121.54755,大直街94巷口,Zhongshan Dist,YouBike2.0_Ln. 94， Dazhi St.,Ln. 94， Dazhi St.,9,1,2023-05-27 14:24:28,2023-05-27 14:24:51,2023-05-27 13:30:39,2023-05-27
651,500107126,YouBike2.0_捷運南京復興站(8號出口),25,14,中山區,2023-05-27 14:14:14,25.05196,121.5433,南京東路三段221號前,Zhongshan Dist,YouBike2.0_MRT Nanjing Fuxing Sta. (Exit.8),No. 221， Sec. 3， Nanjing E. Rd.,11,1,2023-05-27 14:24:28,2023-05-27 14:24:51,2023-05-27 14:14:14,2023-05-27
